brand,branch,addr,sido,sigugun,dongmyun,lat,lng
배스킨라빈스,강릉주문진점,강원 강릉시 주문진읍 주문로 53 (교항리),강원도,강릉시,주문진읍,37.8887328,128.8254826
배스킨라빈스,강릉유천점,강원 강릉시 홍제동 1022-4 1층,강원도,강릉시,홍제동,37.7568207,128.8700634
배스킨라빈스,강릉교동점,강원 강릉시 교동광장로 135,강원도,강릉시,교동,37.7645286,128.8796723
배스킨라빈스,강릉대학로점,강원 강릉시 경강로 2096,강원도,강릉시,임당동,37.7545310,128.8962015
배스킨라빈스,강릉포남점,강원 강릉시 포남동 1186,강원도,강릉시,포남동,37.7701659,128.9126992
배스킨라빈스,강릉입암점,"강원 강릉시 입암동 708-1, 1층 105호(입암동)",강원도,강릉시,입암동,37.7595347,128.9189689
배스킨라빈스,강릉이마트점,강원 강릉시 경강로 2398-10 (송정동) 이마트 1층,강원도,강릉시,송정동,37.7705547,128.9226542
배스킨라빈스,동해나안점,강원 동해시 나안동 177-7,강원도,동해시,나안동,37.4863022,129.1097397
배스킨라빈스,동해천곡점,강원 동해시 대학로 31 101호,강원도,동해시,천곡동,37.5228128,129.1122426
배스킨라빈스,삼척쏠비치점,강원 삼척시 갈천동 225 로비 1층,강원도,삼척시,갈천동,37.4710553,129.1645705
배스킨라빈스,삼척남양점,강원 삼척시 남양동 17-13,강원도,삼척시,남양동,37.4437700,129.1637193
배스킨라빈스,속초조양점,"강원 속초시 동해대로 4024,111(조양동,1층111~112호)",강원도,속초시,조양동,38.1902066,128.5945497
배스킨라빈스,속초중앙점,강원 속초시 중앙로 136,강원도,속초시,중앙동,38.2028604,128.5909012
배스킨라빈스,강원양구점,강원 양구군 양구읍 중앙길 9,강원도,양구군,양구읍,38.1070449,127.9893862
배스킨라빈스,영월점,강원 영월군 영월읍 중앙로 17,강원도,영월군,영월읍,37.1836759,128.4656135
배스킨라빈스,문막점,강원 원주시 문막읍 건등리 200-6 1층,강원도,원주시,문막읍,37.3204064,127.8329361
배스킨라빈스,원주기업센텀점,강원 원주시 지정면 가곡리 1497-1,강원도,원주시,지정면,37.3825159,127.8730546
배스킨라빈스,원주기업스타점,"강원 원주시 지정면 신지정로 211, 스타세븐상가 156호",강원도,원주시,지정면,37.3741912,127.8727314
배스킨라빈스,원주단계점,강원 원주시 단계동 1216,강원도,원주시,단계동,37.3520636,127.9260707
배스킨라빈스,원주터미널점,강원 원주시 서원대로 171 원주시외버스터미널,강원도,원주시,단계동,37.3448152,127.9308917
배스킨라빈스,원주무실점,강원 원주시 무실동 1857-10 (시네씨티타워 1층),강원도,원주시,무실동,37.3348592,127.9301490
배스킨라빈스,원주태장점,강원 원주시 북원로 2706,강원도,원주시,태장동,37.3850834,127.9479381
배스킨라빈스,원주중앙점,강원 원주시 원일로 122-2 (중앙동),강원도,원주시,중앙동,37.3504942,127.9483258
배스킨라빈스,원주구곡점,"강원 원주시 단구동 1511-1 스타프라자 103,104호",강원도,원주시,단구동,37.3310482,127.9484535
배스킨라빈스,원주단관점,강원 원주시 단구로 369,강원도,원주시,단구동,37.3231945,127.9573987
배스킨라빈스,원주반곡점,"강원 원주시 늘품로 187-58 (단구동, 현대아카데미프라자) 113호, 114호",강원도,원주시,단구동,37.3373337,127.9641115
배스킨라빈스,원주혁신점,강원 원주시 반곡동 1885-3,강원도,원주시,반곡동,37.3236422,127.9793896
배스킨라빈스,강원인제점,강원 인제군 인제읍 상동리 295-6,강원도,인제군,인제읍,38.0681107,128.1724144
배스킨라빈스,철원동송점,강원 철원군 동송읍 이평리 680-6,강원도,철원군,동송읍,38.2080767,127.2184125
배스킨라빈스,철원와수점,강원 철원군 서면 와수로146번길 1 (와수리),강원도,철원군,서면,38.2367908,127.4370980
배스킨라빈스,춘천이마트점,강원 춘천시 온의동 511번지 이마트춘천점 1층,강원도,춘천시,온의동,37.8638082,127.7183660
배스킨라빈스,춘천퇴계점,강원 춘천시 행촌로 28,강원도,춘천시,퇴계동,37.8591383,127.7242250
배스킨라빈스,춘천한숲시티점,강원 춘천시 퇴계동 1240,강원도,춘천시,퇴계동,37.8543308,127.7309852
배스킨라빈스,춘천온의점,강원 춘천시 온의동 590 온의롯데캐슬스카이클래스 1층,강원도,춘천시,온의동,37.8698281,127.7184844
배스킨라빈스,춘천석사점,강원 춘천시 지석로 75,강원도,춘천시,석사동,37.8513182,127.7437076
배스킨라빈스,춘천명동점,강원 춘천시 중앙로 67번길 3,강원도,춘천시,중앙로2가,37.8791219,127.7268229
배스킨라빈스,강원대점,강원 춘천시 효자동 628-10,강원도,춘천시,효자동,37.8729210,127.7445803
배스킨라빈스,춘천애막골점,강원 춘천시 석사동 729-1,강원도,춘천시,석사동,37.8672927,127.7543095
배스킨라빈스,춘천강북점,강원 춘천시 충열로 10-13,강원도,춘천시,우두동,37.9001596,127.7289568
배스킨라빈스,춘천후평점,강원 춘천시 후석로 296,강원도,춘천시,후평동,37.8777866,127.7517423
배스킨라빈스,춘천우두점,강원 춘천시 우두6길 5 (우두동),강원도,춘천시,우두동,37.9078807,127.7326889
배스킨라빈스,춘천장학점,강원 춘천시 동면 장학리 1007-5,강원도,춘천시,동면,37.8929749,127.7555870
배스킨라빈스,강원태백점,강원 태백시 황지로 172 (황지동),강원도,태백시,황지동,37.1737174,128.9911457
배스킨라빈스,평창알펜시아점,강원 평창군 대관령면 솔봉로 325 알펜시아 콘도 101동 R05호,강원도,평창군,대관령면,37.6581327,128.6714455
배스킨라빈스,강원횡계점,강원 평창군 대관령면 대관령마루길 7 (횡계리),강원도,평창군,대관령면,37.6685269,128.7107703
배스킨라빈스,비발디파크점,강원 홍천군 서면 한치골길 262 (팔봉리),강원도,홍천군,서면,37.6523371,127.6873348
배스킨라빈스,홍천중앙로점,강원 홍천군 홍천읍 꽃뫼로 99-2,강원도,홍천군,홍천읍,37.6918117,127.8847725
배스킨라빈스,강원화천점,강원 화천군 화천읍 중앙로 11,강원도,화천군,화천읍,38.1048133,127.7055188
배스킨라빈스,강원횡성점,강원 횡성군 횡성읍 문정로 21 (읍하리),강원도,횡성군,횡성읍,37.4898639,127.9860058
배스킨라빈스,청평점,경기 가평군 청평면 청평중앙로 70 (청평리),경기도,가평군,청평면,37.7391895,127.4216899
배스킨라빈스,가평현리점,"경기 가평군 조종면 조종희망로 14 (현리, 엄마손해장국)",경기도,가평군,조종면,37.8181696,127.3501827
배스킨라빈스,flow가평휴게소상행점,경기 가평군 설악면 미사리로 544 (미사리) 가평휴계소 서울방향 1층,경기도,가평군,설악면,37.7017101,127.5434584
배스킨라빈스,가평휴게소하행점,경기 가평군 설악면 미사리 149-4 가평휴계소 춘천방향 1층,경기도,가평군,설악면,37.7016962,127.5465562
배스킨라빈스,가평점,경기 가평군 가평읍 가화로 124(1층1호),경기도,가평군,가평읍,37.8307417,127.5134831
배스킨라빈스,고양향동점,경기 고양시 덕양구 향동동 530,경기도,고양시 덕양구,향동동,37.5988443,126.8925676
배스킨라빈스,고양지축역점,"경기 고양시 덕양구 지축로 62 (지축동, 아인시티)",경기도,고양시 덕양구,지축동,37.6495361,126.9149833
배스킨라빈스,고양스타필드점,경기 고양시 덕양구 동산동 370 스타필드고양 1층 1267호,경기도,고양시 덕양구,동산동,37.6471016,126.8947736
배스킨라빈스,고양트레이더스점,"경기 고양시 덕양구 동산동 370, 지하 2층(일부)층",경기도,고양시 덕양구,동산동,37.6471016,126.8947736
배스킨라빈스,고양원흥점,경기 고양시 덕양구 도내동 957,경기도,고양시 덕양구,도내동,37.6350412,126.8714415
배스킨라빈스,행신서정점,"경기 고양시 덕양구 중앙로 438 (행신동, 아름터프라자)",경기도,고양시 덕양구,행신동,37.6180013,126.8467303
배스킨라빈스,고양삼송점,경기 고양시 덕양구 삼송동 326-2,경기도,고양시 덕양구,삼송동,37.6508365,126.8843680
배스킨라빈스,고양행신역점,경기 고양시 덕양구 충장로 18,경기도,고양시 덕양구,행신동,37.6144060,126.8344690
배스킨라빈스,고양원흥역점,"경기 고양시 덕양구 권율대로 672 (원흥동, 3호선 원흥역 봄오피스텔)",경기도,고양시 덕양구,원흥동,37.6498655,126.8741742
배스킨라빈스,고양행신햇빛점,"경기 고양시 덕양구 중앙로558번길 16-6 (행신동, 신일빌딩) 1층",경기도,고양시 덕양구,행신동,37.6240303,126.8361463
배스킨라빈스,고양신원마을점,경기 고양시 덕양구 신원동 628-2,경기도,고양시 덕양구,신원동,37.6637119,126.8912349
배스킨라빈스,고양화정역점,"경기 고양시 덕양구 화중로 60 (화정동, 화정빌딩)105호",경기도,고양시 덕양구,화정동,37.6323754,126.8308395
배스킨라빈스,고양능곡점,"경기 고양시 덕양구 지도로 100 (토당동, 파워프라자)",경기도,고양시 덕양구,토당동,37.6260957,126.8240805
배스킨라빈스,덕양구청점,"경기 고양시 덕양구 화중로 126 (화정동, 찬우물상가)",경기도,고양시 덕양구,화정동,37.6382675,126.8319207
배스킨라빈스,일산원당점,경기 고양시 덕양구 호국로 792,경기도,고양시 덕양구,성사동,37.6566317,126.8366454
배스킨라빈스,고양점,경기 고양시 덕양구 혜음로 23,경기도,고양시 덕양구,고양동,37.7026739,126.9016407
배스킨라빈스,고양관산점,경기 고양시 덕양구 통일로 770 (관산동),경기도,고양시 덕양구,관산동,37.6879132,126.8650211
배스킨라빈스,고양터미널홈플러스점,경기 고양시 일산동구 중앙로 1036번지 홈플러스 지하 2층,경기도,고양시 일산동구,백석동,37.6431783,126.7896617
배스킨라빈스,일산백석역점,경기 고양시 일산동구 일산로 46 남정프라자 106호,경기도,고양시 일산동구,백석동,37.6423617,126.7879067
배스킨라빈스,일산백마점,"경기 고양시 일산동구 일산로 196 (마두동, 대길프라자)",경기도,고양시 일산동구,마두동,37.6539719,126.7907621
배스킨라빈스,고양풍동점,경기 고양시 일산동구 숲속마을 1로 71 113호,경기도,고양시 일산동구,풍동,37.6673528,126.7997822
배스킨라빈스,일산식사점,경기 고양시 일산동구 위시티로 67 (식사동),경기도,고양시 일산동구,식사동,37.6781255,126.8108677
배스킨라빈스,일산마두역점,경기 고양시 일산동구 중앙로 1199 (장항동),경기도,고양시 일산동구,장항동,37.6536014,126.7763374
배스킨라빈스,일산장항호수점,"경기 고양시 일산동구 중앙로1261번길 57 (장항동, 대명레이크프라자 1) 1층 104호",경기도,고양시 일산동구,장항동,37.6572944,126.7710075
배스킨라빈스,,"경기 고양시 일산동구 중앙로1261번길 57 (장항동, 대명레이크프라자 1)",경기도,고양시 일산동구,장항동,37.6572944,126.7710075
배스킨라빈스,풍산이마트점,경기 고양시 일산동구 중산동 1809번지 이마트 풍산점 1층,경기도,고양시 일산동구,중산동,37.6739206,126.7871318
배스킨라빈스,일산라페스타점,경기 고양시 일산동구 무궁화로 31-1 텐폴드프라자 105호,경기도,고양시 일산동구,장항동,37.6627672,126.7674327
배스킨라빈스,일산중산점,경기 고양시 일산동구 고양대로 739 주은프라자 101호,경기도,고양시 일산동구,중산동,37.6828997,126.7783750
배스킨라빈스,일산후곡점,경기 고양시 일산서구 일산로 530,경기도,고양시 일산서구,일산동,37.6775177,126.7691091
배스킨라빈스,일산주엽점,"경기 고양시 일산서구 중앙로 1444 (주엽동), 102호",경기도,고양시 일산서구,주엽동,37.6710415,126.7601818
배스킨라빈스,킨텍스역점,"경기 고양시 일산서구 킨텍스로 240 (대화동, 킨텍스 꿈에그린)",경기도,고양시 일산서구,대화동,37.6659014,126.7504499
배스킨라빈스,후곡사거리점,경기 고양시 일산서구 후곡로 22 101호,경기도,고양시 일산서구,일산동,37.6791449,126.7638023
배스킨라빈스,킨텍스홈플러스점,경기 고양시 일산서구 호수로 817 (대화동),경기도,고양시 일산서구,대화동,37.6682829,126.7511979
배스킨라빈스,대화역점,경기 고양시 일산서구 중앙로 1568,경기도,고양시 일산서구,대화동,37.6763775,126.7479218
배스킨라빈스,일산탄현점,경기 고양시 일산서구 일현로 42 탄현프라자 101호,경기도,고양시 일산서구,탄현동,37.6909401,126.7630293
배스킨라빈스,일산대화마을점,"경기 고양시 일산서구 대화로 124 (대화동, 명성프라자)",경기도,고양시 일산서구,대화동,37.6699455,126.7345244
배스킨라빈스,일산덕이점,"경기 고양시 일산서구 하이파크3로78번길 1 (덕이동) 1층 104호, 105호",경기도,고양시 일산서구,덕이동,37.6987458,126.7532202
배스킨라빈스,일산가좌점,"경기 고양시 일산서구 가좌3로 27, 103호(가좌동)",경기도,고양시 일산서구,가좌동,37.6871820,126.7192567
배스킨라빈스,과천역점,"경기 과천시 별양로 164 (부림동, 과천센트럴파크푸르지오써밋)",경기도,과천시,부림동,37.4327958,126.9988584
배스킨라빈스,과천정부청사역점,"경기 과천시 별양상가1로 35 (별양동, 상아빌딩)",경기도,과천시,별양동,37.4285507,126.9935785
배스킨라빈스,과천위버필드점,"경기 과천시 모템말길 7, 상가12-2동 101, 102호 (갈현동)",경기도,과천시,갈현동,37.4212371,126.9884262
배스킨라빈스,광명신촌점,경기 광명시 소하동 1364,경기도,광명시,소하동,37.4483470,126.8914814
배스킨라빈스,광명하안점,"경기 광명시 범안로 1059, 유창빌딩 101호",경기도,광명시,하안동,37.4631025,126.8800711
배스킨라빈스,광명하안6단지점,경기 광명시 하안동 37 신영빌딩 103호,경기도,광명시,하안동,37.4613951,126.8788419
배스킨라빈스,광명소하이마트점,경기 광명시 소하로 97 이마트 3층,경기도,광명시,소하동,37.4466747,126.8845480
배스킨라빈스,광명철산로데오점,경기 광명시 오리로 856번길 25,경기도,광명시,철산동,37.4757844,126.8695633
배스킨라빈스,광명철산역점,경기 광명시 철산동 480,경기도,광명시,철산동,37.4746645,126.8665175
배스킨라빈스,광명소하사거리점,"경기 광명시 오리로 379 (소하동), 1층",경기도,광명시,소하동,37.4362637,126.8792734
배스킨라빈스,광명역점,"경기 광명시 일직동 511-3, 케이스퀘어 112호",경기도,광명시,일직동,37.4206303,126.8839599
배스킨라빈스,광명사거리점,경기 광명시 광명로 899,경기도,광명시,광명동,37.4792254,126.8539915
배스킨라빈스,광명7동점,경기 광명시 도덕로 39 (광명동),경기도,광명시,광명동,37.4687762,126.8521905
배스킨라빈스,광주신현,경기도 광주시  신현로 72 1층 102호          ,경기도,광주시,신현동,37.3604150,127.1546818
배스킨라빈스,광주태전점,경기 광주시 중대동 16-77,경기도,광주시,중대동,37.3934019,127.2324981
배스킨라빈스,광주탄벌점,"경기 광주시 파발로 185, 103(탄벌동, KJ빌딩)",경기도,광주시,탄벌동,37.4154437,127.2506223
배스킨라빈스,태전힐스테이트점,"경기 광주시 태봉로 145-1, 세진상가 1층 101호, 102호 (태전동)",경기도,광주시,태전동,37.3807966,127.2311403
배스킨라빈스,광주경안점,경기 광주시 중앙로 118-1 (경안동),경기도,광주시,경안동,37.4102885,127.2581978
배스킨라빈스,광주양벌점,경기도 광주시  양벌로 327          ,경기도,광주시,양벌동,37.3701499,127.2463633
배스킨라빈스,광주쌍령점,경기 광주시 경충대로1481번길 4 (쌍령동),경기도,광주시,쌍령동,37.4017199,127.2707959
배스킨라빈스,광주초월역점,경기 광주시 초월읍 경충대로 1087 (쌍동리),경기도,광주시,초월읍,37.3741051,127.2973411
배스킨라빈스,곤지암리조트점,경기 광주시 도척면 도웅리 542,경기도,광주시,도척면,37.3373769,127.2954691
배스킨라빈스,광주곤지암점,경기 광주시 곤지암읍 곤지암로 55 (곤지암리),경기도,광주시,곤지암읍,37.3495130,127.3405470
배스킨라빈스,구리토평점,경기 구리시 수택동 874-11,경기도,구리시,수택동,37.5871147,127.1387790
배스킨라빈스,구리수택점,"경기 구리시 이문안로 71 (수택동, 대호빌딩) 5호",경기도,구리시,수택동,37.5924337,127.1396500
배스킨라빈스,구리돌다리점,경기 구리시 경춘로 214 (수택동),경기도,구리시,수택동,37.6002557,127.1390962
배스킨라빈스,구리검배사거리점,"경기 구리시 벌말로 185 (수택동, 구리태영데시앙)",경기도,구리시,수택동,37.5938694,127.1498577
배스킨라빈스,구리인창점,경기 구리시 동구릉로 91,경기도,구리시,인창동,37.6082669,127.1341142
배스킨라빈스,구리등기소점,"경기 구리시 건원대로 36 (인창동, 화성골드프라자)",경기도,구리시,인창동,37.6044341,127.1405155
배스킨라빈스,구리갈매점,경기 구리시 갈매중앙로 79 (갈매동),경기도,구리시,갈매동,37.6316461,127.1169637
배스킨라빈스,산본금정점,경기 군포시 군포로 747-1,경기도,군포시,산본동,37.3719783,126.9427566
배스킨라빈스,산본사거리점,"경기 군포시 고산로 683 (산본동, 현대아카데미센타)",경기도,군포시,산본동,37.3713996,126.9343589
배스킨라빈스,군포신환사거리점,경기 군포시 금정동 723-11,경기도,군포시,금정동,37.3629103,126.9416999
배스킨라빈스,산본이마트점,경기 군포시 산본로 347 3층,경기도,군포시,산본동,37.3611050,126.9314704
배스킨라빈스,산본중심가점,경기 군포시 산본로 323번길 22,경기도,군포시,산본동,37.3587991,126.9316081
배스킨라빈스,군포당정점,"경기 군포시 고산로151번길 6 (당정동, R&K프라자)",경기도,군포시,당정동,37.3481019,126.9549592
배스킨라빈스,산본9단지점,"경기 군포시 산본동 1147, 1층 120호",경기도,군포시,산본동,37.3608620,126.9225623
배스킨라빈스,군포당동점,경기 군포시 고산로250번길 1,경기도,군포시,당동,37.3463450,126.9445371
배스킨라빈스,군포트레이더스점,"경기 군포시 삼성로 74 (부곡동, 트레이더스 군포점)",경기도,군포시,부곡동,37.3400782,126.9346285
배스킨라빈스,군포송정점,"경기 군포시 송부로34번길 2 (도마교동, 엔젤리움플라자) 1층 106호, 107호",경기도,군포시,도마교동,37.3153539,126.9180506
배스킨라빈스,김포고촌점,"경기 김포시 고촌읍 김포대로 340 (신곡리, 김포뉴시티)",경기도,김포시,고촌읍,37.6013677,126.7708131
배스킨라빈스,김포신곡점,경기 김포시 고촌읍 수기로 109 (신곡리),경기도,김포시,고촌읍,37.5938460,126.7639539
배스킨라빈스,김포향산점,경기 김포시 고촌읍 상미4로 19-56 (향산리),경기도,김포시,고촌읍,37.6187789,126.7478865
배스킨라빈스,김포풍무역점,"경기 김포시 유현로238번길 24 (풍무동, 문현타워)",경기도,김포시,풍무동,37.6111143,126.7319411
배스킨라빈스,김포트레이더스점,"경기 김포시 김포대로 715 (풍무동, 트레이더스 김포점)",경기도,김포시,풍무동,37.6124762,126.7308546
배스킨라빈스,김포풍무점,경기 김포시 풍무동 803,경기도,김포시,풍무동,37.6024391,126.7219680
배스킨라빈스,김포사우점,경기 김포시 사우중로 45,경기도,김포시,사우동,37.6192703,126.7184468
배스킨라빈스,김포걸포북변점,"경기 김포시 걸포2로 23 (걸포동) 1층 101, 102호",경기도,김포시,걸포동,37.6328769,126.7042364
배스킨라빈스,김포홈플러스점,경기 김포시 중봉로 14 (감정동),경기도,김포시,감정동,37.6238474,126.6986085
배스킨라빈스,김포장기자이점,경기 김포시 태장로 804 (장기동) 자이타워,경기도,김포시,장기동,37.6378264,126.6781397
배스킨라빈스,김포카페거리점,"경기 김포시 전원로 11 (운양동, 가든프라자) 1동 11",경기도,김포시,운양동,37.6454717,126.6811711
배스킨라빈스,김포운양점,경기 김포시 운양동 1297-12번지,경기도,김포시,운양동,37.6550759,126.6833438
배스킨라빈스,김포장기점,"경기 김포시 김포한강1로78번길 6-6 (장기동, 연경프라자)",경기도,김포시,장기동,37.6444423,126.6697301
배스킨라빈스,김포마산점,경기 김포시 마산동 646-3 다빈치프라자 107호,경기도,김포시,마산동,37.6369177,126.6440995
배스킨라빈스,김포구래역점,"경기 김포시 김포한강4로 487 (구래동, 한강신도시 반도유보라 4차)",경기도,김포시,구래동,37.6463001,126.6300872
배스킨라빈스,김포한강점,경기 김포시 구래동 6885-2,경기도,김포시,구래동,37.6435655,126.6265979
배스킨라빈스,김포양곡점,경기 김포시 양촌읍 양곡2로30번길 7-7 (양곡리) 1층,경기도,김포시,양촌읍,37.6543810,126.6275068
배스킨라빈스,김포통진점,경기 김포시 통진읍 김포대로 2229 (마송리),경기도,김포시,통진읍,37.6893153,126.5983336
배스킨라빈스,남양주다산가운점,경기 남양주시 가운동 668-3,경기도,남양주시,다산동,37.6046197,127.1555776
배스킨라빈스,다산이마트점,"경기 남양주시 도농로 24 (도농동, 부영애시앙) 이마트 다산점 지하1층",경기도,남양주시,다산동,37.6087966,127.1585900
배스킨라빈스,다산지금점,"경기 남양주시 다산지금로 136 (다산동) 푸리마타워 112,113호",경기도,남양주시,다산동,37.6008774,127.1735210
배스킨라빈스,다산법조타운점,경기 남양주시 다산동 3198-21,경기도,남양주시,다산동,37.6113331,127.1642588
배스킨라빈스,다산이편한세상점,경기 남양주시 다산동 6130,경기도,남양주시,다산동,37.6202717,127.1577052
배스킨라빈스,다산롯데캐슬점,경기 남양주시 다산동 6055,경기도,남양주시,다산동,37.6258209,127.1540280
배스킨라빈스,별내신안점,"경기 남양주시 별내5로5번길 11 (별내동, 성산 메디컬 타워)",경기도,남양주시,별내동,37.6502627,127.1126637
배스킨라빈스,별내로데오점,경기 남양주시 별내중앙로 63 (별내동),경기도,남양주시,별내동,37.6478619,127.1229379
배스킨라빈스,남양주덕소점,경기 남양주시 와부읍 덕소리 473-2,경기도,남양주시,와부읍,37.5862033,127.2120864
배스킨라빈스,남양주퇴계원점,경기 남양주시 퇴계원면 퇴계원리 281-1,경기도,남양주시,퇴계원읍,37.6514578,127.1418203
배스킨라빈스,별내북부점,경기 남양주시 별내3로 328 (별내동) 1층 104호,경기도,남양주시,별내동,37.6666989,127.1173473
배스킨라빈스,,경기 남양주시 진건읍 진건오남로 91,경기도,남양주시,진건읍,37.6588142,127.1780535
배스킨라빈스,남양주진건점,경기 남양주시 진건읍 진건오남로 91 (용정리) 1층,경기도,남양주시,진건읍,37.6588142,127.1780535
배스킨라빈스,남양주평내점,"경기 남양주시 경춘로1256번길 6 (평내동, 다모아프라자)",경기도,남양주시,평내동,37.6459466,127.2344211
배스킨라빈스,남양주청학점,"경기 남양주시 별내면 청학로중앙길 9 (청학리, 청화빌딩)",경기도,남양주시,별내면,37.7086991,127.1184072
배스킨라빈스,남양주이마트점,"경기 남양주시 늘을2로 27 (호평동, 남양주 호평이마트)",경기도,남양주시,호평동,37.6550675,127.2430743
배스킨라빈스,남양주호평점,경기 남양주시 늘을2로 20,경기도,남양주시,호평동,37.6544952,127.2441105
배스킨라빈스,남양주오남한신점,경기 남양주시 오남읍 진건오남로 545-5 (오남리),경기도,남양주시,오남읍,37.6820339,127.2098665
배스킨라빈스,남양주호평중흥점,"경기 남양주시 늘을3로 65-12 (호평동, 금강프라자) 1층",경기도,남양주시,호평동,37.6602296,127.2478975
배스킨라빈스,남양주오남점,"경기 남양주시 오남읍 양지리 96, 양지빌딩 1층",경기도,남양주시,오남읍,37.6981257,127.2030702
배스킨라빈스,남양주진접해밀점,"경기 남양주시 진접읍 해밀예당1로 30-9 (금곡리) 107,108호",경기도,남양주시,진접읍,37.7116431,127.1867779
배스킨라빈스,남양주장현(임시휴점)점,경기 남양주시 진접읍 봉현로 32 (장현리),경기도,남양주시,진접읍,37.7163517,127.1797490
배스킨라빈스,남양주진접점,경기 남양주시 진접읍 해밀예당3로 61 (금곡리),경기도,남양주시,진접읍,37.7151239,127.1978290
배스킨라빈스,진접홈플러스점,경기 남양주시 진접읍 금강로 1447,경기도,남양주시,진접읍,37.7217730,127.1886078
배스킨라빈스,남양주진접역점,경기 남양주시 진접읍 해밀예당1로 221 (금곡리) 지안빌딩 1층,경기도,남양주시,진접읍,37.7206568,127.2027443
배스킨라빈스,남양주창현점,경기 남양주시 화도읍 창현리 555,경기도,남양주시,화도읍,37.6462032,127.3054068
배스킨라빈스,남양주마석점,경기 남양주시 화도읍 비룡로 58,경기도,남양주시,화도읍,37.6572373,127.3020098
배스킨라빈스,남양주부평점,"경기 남양주시 진접읍 부평로48번길 140 (부평리, 더샵 남양주퍼스트시티) 108호",경기도,남양주시,진접읍,37.7375732,127.1979609
배스킨라빈스,동두천지행점,경기 동두천시 지행로 50,경기도,동두천시,지행동,37.8920906,127.0526152
배스킨라빈스,동두천생연점,경기 동두천시 생연동 397-1,경기도,동두천시,생연동,37.8996008,127.0621723
배스킨라빈스,부천옥길점,경기 부천시 옥길동 726-1,경기도,부천시,옥길동,37.4680058,126.8224995
배스킨라빈스,부천소사홈플러스,경기도 부천시 경인로 532 (괴안동)          ,경기도,부천시,괴안동,37.4848729,126.8142918
배스킨라빈스,부천고강,경기도 부천시 역곡로 481          ,경기도,부천시,고강동,37.5276001,126.8158554
배스킨라빈스,역곡남부,경기도 부천시 경인로 517          ,경기도,부천시,괴안동,37.4848886,126.8124677
배스킨라빈스,역곡북부점,경기도 부천시 역곡로 2          ,경기도,부천시,역곡동,37.4856139,126.8119671
배스킨라빈스,부천옥길트레이더스점,경기 부천시 옥길동 768,경기도,부천시,옥길동,37.4615357,126.8139516
배스킨라빈스,부천범박,경기도 부천시 범안로 77          ,경기도,부천시,범박동,37.4749499,126.8088113
배스킨라빈스,부천원종,경기도 부천시 원종로 47          ,경기도,부천시,원종동,37.5242298,126.8052005
배스킨라빈스,부천여월홈플러스점,"경기 부천시 소사로 663 (여월동, 홈플러스 부천여월점)",경기도,부천시,여월동,37.5158498,126.8024071
배스킨라빈스,부천소사점,경기 부천시 소사구 소사본동 139-22 대양프라자 1층,경기도,부천시,소사본동,37.4777626,126.7958016
배스킨라빈스,부천도당점,경기도 부천시 삼작로 298          ,경기도,부천시,도당동,37.5200354,126.7948706
배스킨라빈스,부천원미점,경기 부천시 원미동 76-3,경기도,부천시,원미동,37.4943545,126.7914869
배스킨라빈스,부천오정점,"경기 부천시 오정로 249 (오정동, 오정프라자) 1층",경기도,부천시,오정동,37.5298481,126.7859732
배스킨라빈스,부천역지하점,경기 부천시 심곡본동 316-2,경기도,부천시,심곡본동,37.4840459,126.7828592
배스킨라빈스,부천역북부점,경기도 부천시 부일로 459          ,경기도,부천시,심곡동,37.4863123,126.7811944
배스킨라빈스,중동위브점,"경기 부천시 중동 1111, 제상가6종 111호",경기도,부천시,중동,37.4987469,126.7785877
배스킨라빈스,부천역남부점,"경기 부천시 경인로 202 (심곡본동, 부천메디컬타워) 1층 2호",경기도,부천시,심곡본동,37.4833333,126.7778484
배스킨라빈스,중동위브점,경기도 부천시 신흥로 170-1 (중동) 제상가6동 111호          ,경기도,부천시,중동,37.4988920,126.7785354
배스킨라빈스,부천중흥마을점,"경기 부천시 길주로 249 (중동, 대일빌딩)",경기도,부천시,중동,37.5043215,126.7702310
배스킨라빈스,부천신흥시장점,경기도 부천시 중동로 391 1층          ,경기도,부천시,약대동,37.5147982,126.7699115
배스킨라빈스,중동역북부점,경기 부천시 원미구 중동 1289-1 팰리스카운티아이파크상가12호,경기도,부천시,중동,37.4882260,126.7677468
배스킨라빈스,부천시청점,"경기 부천시 석천로 171 (중동, 중동프라자)",경기도,부천시,중동,37.5029891,126.7625201
배스킨라빈스,부천소풍뉴코아점,경기도 부천시 송내대로 239 1층소풍뉴코아킴스          ,경기도,부천시,상동,37.5041097,126.7566632
배스킨라빈스,상동홈플러스점,경기 부천시 상동 540-1,경기도,부천시,상동,37.5043620,126.7550291
배스킨라빈스,상동북부점,경기도 부천시 송내대로265번길 85          ,경기도,부천시,상동,37.5073554,126.7539173
배스킨라빈스,송내로데오점,"경기 부천시 상일로94번길 37 (상동, 금강플라자)",경기도,부천시,상동,37.4898996,126.7528423
배스킨라빈스,상동남부점,"경기 부천시 상동로 79 (상동, 수석프라자)",경기도,부천시,상동,37.5042755,126.7523672
배스킨라빈스,송내남부역사점,경기 부천시 소사구 송내동 272-1 송내역 역사상가 210호,경기도,부천시,송내동,37.4874825,126.7522230
배스킨라빈스,성남고등점,경기 성남시 수정구 청계산로 686 (고등동) 140호,경기도,성남시 수정구,고등동,37.4272753,127.0939366
배스킨라빈스,가천대역점,경기 성남시 수정구 태평로 2 (태평동),경기도,성남시 수정구,태평동,37.4478048,127.1272426
배스킨라빈스,남위례역점,"경기 성남시 수정구 위례광장로 25 (창곡동, 성산타워) 104호",경기도,성남시 수정구,창곡동,37.4665792,127.1400665
배스킨라빈스,flow위례점,"경기 성남시 수정구 위례광장로 320 (창곡동, 아이에스센트럴타워) 1층",경기도,성남시 수정구,창곡동,37.4722451,127.1429497
배스킨라빈스,성남태평역점,경기 성남시 수정구 수정로 71,경기도,성남시 수정구,태평동,37.4401439,127.1284006
배스킨라빈스,위례창곡점,"경기 성남시 수정구 위례동로 141 (창곡동, 우성메디피아)",경기도,성남시 수정구,창곡동,37.4726432,127.1500709
배스킨라빈스,성남모란역점,경기 성남시 중원구 성남동 3498,경기도,성남시 중원구,성남동,37.4316523,127.1298913
배스킨라빈스,성남태평이마트점,경기 성남시 수정구 태평동 7336 이마트 2층,경기도,성남시 수정구,태평동,37.4442853,127.1413968
배스킨라빈스,성남산성점,경기 성남시 수정구 산성동 1456,경기도,성남시 수정구,산성동,37.4544479,127.1500358
배스킨라빈스,신흥사거리점,경기 성남시 수정구 신흥동 4210-2,경기도,성남시 수정구,신흥동,37.4401960,127.1447890
배스킨라빈스,판교운중점,경기 성남시 분당구 운중동 947,경기도,성남시 분당구,운중동,37.3913804,127.0763816
배스킨라빈스,성남세이브존점,경기 성남시 수정구 산성대로 337 성남세이브존 지하1층,경기도,성남시 수정구,신흥동,37.4439101,127.1534832
배스킨라빈스,남한산성역점,경기 성남시 중원구 금광동 4840 1층,경기도,성남시 중원구,금광동,37.4536785,127.1611782
배스킨라빈스,단대오거리점,경기 성남시 중원구 산성대로372번길 3 (금광동),경기도,성남시 중원구,금광동,37.4452336,127.1575293
배스킨라빈스,야탑홈플러스점,경기 성남시 분당구 야탑동 341 테마폴리스 3층,경기도,성남시 분당구,야탑동,37.4131266,127.1273424
배스킨라빈스,분당야탑점,경기 성남시 분당구 야탑로 81번길 10 분당아미고타워 108호,경기도,성남시 분당구,야탑동,37.4105955,127.1282197
배스킨라빈스,성남하대원점,경기 성남시 중원구 하대원동 132-12,경기도,성남시 중원구,하대원동,37.4298459,127.1495942
배스킨라빈스,분당아름마을점,경기 성남시 분당구 판교로 445,경기도,성남시 분당구,야탑동,37.4057526,127.1233454
배스킨라빈스,판교원마을점,경기 성남시 분당구 운중로 242,경기도,성남시 분당구,판교동,37.3892143,127.0897238
배스킨라빈스,신구대사거리점,경기 성남시 중원구 광명로 369 (금광동),경기도,성남시 중원구,금광동,37.4467921,127.1667741
배스킨라빈스,분당중탑점,경기 성남시 분당구 벌말로 37,경기도,성남시 분당구,야탑동,37.4113526,127.1380138
배스킨라빈스,현대판교점,"경기 성남시 분당구 판교역로146번길 20 (백현동, 현대백화점 판교점)",경기도,성남시 분당구,백현동,37.3927946,127.1120875
배스킨라빈스,판교백현점,"경기 성남시 분당구 동판교로 61 (백현동, 자유퍼스트프라자2) 104호, 105호",경기도,성남시 분당구,백현동,37.3884812,127.1153922
배스킨라빈스,분당서현점,경기 성남시 분당구 서현로 184 LG에클란트 1층 107호,경기도,성남시 분당구,서현동,37.3883743,127.1237889
배스킨라빈스,성남도촌점,경기 성남시 중원구 도촌동 508,경기도,성남시 중원구,도촌동,37.4144478,127.1500644
배스킨라빈스,판교대장점,"경기 성남시 분당구 판교대장로 92 (대장동) 푸리마타워 101호, 102호",경기도,성남시 분당구,대장동,37.3670275,127.0684540
배스킨라빈스,서현로데오점,"경기 성남시 분당구 서현로210번길 14 (서현동, 유성트윈프라자2차)",경기도,성남시 분당구,서현동,37.3862377,127.1245931
배스킨라빈스,분당수내역점,경기 성남시 분당구 수내동 19-6,경기도,성남시 분당구,수내동,37.3767602,127.1123478
배스킨라빈스,분당정자파라곤점,"경기 성남시 분당구 정자일로 230 (정자동, 동양정자파라곤) 106, 107호",경기도,성남시 분당구,정자동,37.3701427,127.1066661
배스킨라빈스,분당시범점,"경기 성남시 분당구 돌마로 481 (서현동, 분당우성프라자) 1층 105-1호",경기도,성남시 분당구,서현동,37.3777547,127.1328741
배스킨라빈스,분당파크타운점,경기 성남시 분당구 내정로 166번길 43 금산상가 112호,경기도,성남시 분당구,수내동,37.3703464,127.1226425
배스킨라빈스,분당정자점,경기 성남시 분당구 내정로 58,경기도,성남시 분당구,정자동,37.3653083,127.1151442
배스킨라빈스,분당장안타운점,경기 성남시 분당구 불정로 380,경기도,성남시 분당구,서현동,37.3739722,127.1368530
배스킨라빈스,분당아울렛점,경기 성남시 분당구 미금일로154번길 20 (구미동),경기도,성남시 분당구,구미동,37.3490412,127.1074652
배스킨라빈스,분당미금점,경기 성남시 분당구 돌마로 85 동양플라자 1층 109호,경기도,성남시 분당구,금곡동,37.3503901,127.1113450
배스킨라빈스,분당구미점,경기 성남시 분당구 구미로 60,경기도,성남시 분당구,구미동,37.3378050,127.1157040
배스킨라빈스,수원파장점,경기 수원시 장안구 정자동 434,경기도,수원시 장안구,정자동,37.3057905,126.9921597
배스킨라빈스,수원송죽점,경기 수원시 장안구 송죽동 495-17,경기도,수원시 장안구,송죽동,37.3034048,127.0058210
배스킨라빈스,북수원홈플러스점,경기 수원시 장안구 조원동 898-1,경기도,수원시 장안구,조원동,37.3021470,127.0091990
배스킨라빈스,수원율전점,경기 수원시 장안구 율전동 99-10,경기도,수원시 장안구,율전동,37.3031114,126.9725214
배스킨라빈스,광교이마트점,경기 수원시 영통구 이의동 1240,경기도,수원시 영통구,이의동,37.2965712,127.0476804
배스킨라빈스,수원정자점,"경기 수원시 장안구 정자천로173번길 17 (정자동, 투대일타운)",경기도,수원시 장안구,정자동,37.2961726,126.9941573
배스킨라빈스,수원천천점,경기 수원시 장안구 만석로19번길 25-3,경기도,수원시 장안구,천천동,37.2963231,126.9832893
배스킨라빈스,수원성대점,"경기 수원시 장안구 서부로 2119 (율전동, 농협)",경기도,수원시 장안구,율전동,37.2978687,126.9708013
배스킨라빈스,수원연무점,경기 수원시 장안구 연무동 247-9,경기도,수원시 장안구,연무동,37.2922903,127.0292684
배스킨라빈스,광교호수마을점,경기 수원시 영통구 법조로149번길 110 (하동),경기도,수원시 영통구,하동,37.2934955,127.0686924
배스킨라빈스,광교아브뉴프랑점,"경기 수원시 영통구 센트럴타운로 85 (이의동, 밋플레이스 광교) 203동 1층 B127-2호",경기도,수원시 영통구,이의동,37.2907368,127.0504529
배스킨라빈스,수원정자시장점,"경기 수원시 장안구 수성로258번길 3 (영화동, 메가플러스)",경기도,수원시 장안구,영화동,37.2895638,127.0010468
배스킨라빈스,광교경기도청점,"경기 수원시 영통구 도청로18번길 26 (이의동, 힐스테이트광교중앙역)",경기도,수원시 영통구,이의동,37.2875826,127.0568585
배스킨라빈스,수원화서점,"경기 수원시 팔달구 일월로22번길 14 (화서동, 한샘빌딩)",경기도,수원시 팔달구,화서동,37.2855397,126.9808713
배스킨라빈스,동수원사거리점,경기 수원시 팔달구 중부대로143번길 19 (우만동),경기도,수원시 팔달구,우만동,37.2791427,127.0321006
배스킨라빈스,수원화서사거리점,경기 수원시 팔달구 동말로 65 (화서동) 1층,경기도,수원시 팔달구,화서동,37.2789421,127.0013779
배스킨라빈스,수원하나로점,경기 수원시 권선구 서부로 1937,경기도,수원시 권선구,구운동,37.2820835,126.9670701
배스킨라빈스,수원남문점,경기 수원시 팔달구 행궁로 70,경기도,수원시 팔달구,팔달로3가,37.2764575,127.0156329
배스킨라빈스,아주대점,경기 수원시 팔달구 아주로 3,경기도,수원시 팔달구,우만동,37.2751344,127.0437941
배스킨라빈스,수원인계점,경기 수원시 팔달구 권광로276번길 4,경기도,수원시 팔달구,인계동,37.2716626,127.0360730
배스킨라빈스,광교앨리웨이점,"경기 수원시 영통구 광교호수공원로 80 (원천동, 광교아이파크)",경기도,수원시 영통구,원천동,37.2739774,127.0612197
배스킨라빈스,수원탑동점,경기 수원시 권선구 금호로 232 (탑동),경기도,수원시 권선구,탑동,37.2752679,126.9754547
배스킨라빈스,서수원홈플러스점,"경기 수원시 권선구 금곡로 236 (금곡동, 홈플러스) 홈플러스 서수원점 1층",경기도,수원시 권선구,금곡동,37.2743891,126.9558949
배스킨라빈스,수원역점,경기 수원시 팔달구 향교로1번길 1 (매산로1가),경기도,수원시 팔달구,매산로1가,37.2676937,127.0008864
배스킨라빈스,수원매교힐스테이트점,"경기 수원시 권선구 효원로 88 (세류동, 제이에스빌딩) 104호, 105호",경기도,수원시 권선구,세류동,37.2664214,127.0113991
배스킨라빈스,수원원천점,"경기 수원시 영통구 중부대로448번길 106 (원천동), 선우빌딩 101호",경기도,수원시 영통구,원천동,37.2667157,127.0588035
배스킨라빈스,수원금곡점,경기 수원시 권선구 금곡동 1138,경기도,수원시 권선구,금곡동,37.2710779,126.9591964
배스킨라빈스,수원인계로데오점,"경기 수원시 팔달구 인계로166번길 48-21 (인계동, 인계샤르망오피스텔) 1층 116호",경기도,수원시 팔달구,인계동,37.2646026,127.0334178
배스킨라빈스,수원신매탄점,경기 수원시 영통구 매탄동 923-4,경기도,수원시 영통구,매탄동,37.2645376,127.0403829
배스킨라빈스,수원호매실점,경기 수원시 권선구 금곡로 100,경기도,수원시 권선구,금곡동,37.2738628,126.9412832
배스킨라빈스,수원황골마을점,"경기 수원시 영통구 중부대로 604 (영통동, 수원영통리슈빌스카이오피스텔 128호)",경기도,수원시 영통구,영통동,37.2673389,127.0811241
배스킨라빈스,동수원홈플러스점,경기 수원시 팔달구 효원로 257,경기도,수원시 팔달구,인계동,37.2627598,127.0301276
배스킨라빈스,수원세류점,"경기 수원시 권선구 세지로94번길 6 (권선동, 해모르빌딩)",경기도,수원시 권선구,권선동,37.2599586,127.0186325
배스킨라빈스,수원매탄점,경기 수원시 영통구 효원로 383,경기도,수원시 영통구,매탄동,37.2592717,127.0436222
배스킨라빈스,수원권선자이점,"경기 수원시 권선구 권광로 55 (권선동, 권선자이 이편한세상) 상가A동 108호",경기도,수원시 권선구,권선동,37.2530296,127.0263728
배스킨라빈스,수원능실마을점,경기 수원시 권선구 호매실동 1400-2,경기도,수원시 권선구,호매실동,37.2588522,126.9626602
배스킨라빈스,수원영통역점,경기 수원시 영통구 봉영로 1606 미네시티,경기도,수원시 영통구,영통동,37.2538737,127.0744859
배스킨라빈스,수원권선점,경기 수원시 권선구 동수원로 242번길 6,경기도,수원시 권선구,권선동,37.2509437,127.0349988
배스킨라빈스,수원이마트점,경기 수원시 권선구 경수대로 270,경기도,수원시 권선구,권선동,37.2513342,127.0199600
배스킨라빈스,영통홈플러스점,경기 수원시 영통구 봉영로 1576,경기도,수원시 영통구,영통동,37.2518146,127.0725998
배스킨라빈스,수원영통RE~0309점,경기 수원시 영통구 덕영대로 1555번길 16,경기도,수원시 영통구,영통동,37.2467959,127.0615894
배스킨라빈스,수원경희대점,경기 수원시 영통구 영통동 1024-1,경기도,수원시 영통구,영통동,37.2479978,127.0760272
배스킨라빈스,망포아이파크점,"경기 수원시 영통구 망포동 760, 영통아이파크캐슬2단지B동 1층 106",경기도,수원시 영통구,망포동,37.2430279,127.0423087
배스킨라빈스,수원오목천점,경기 수원시 권선구 오목천동 372-2,경기도,수원시 권선구,오목천동,37.2445881,126.9634645
배스킨라빈스,수원곡반정점,경기 수원시 권선구 곡선로 36,경기도,수원시 권선구,곡반정동,37.2390603,127.0284887
배스킨라빈스,수원망포점,"경기 수원시 영통구 태장로 84, 107호",경기도,수원시 영통구,망포동,37.2389740,127.0555208
배스킨라빈스,시흥목감점,"경기 시흥시 목감우회로 51, 103호 (목감동, 동한메디컬프라자)",경기도,시흥시,목감동,37.3822473,126.8619256
배스킨라빈스,시흥산현점,경기 시흥시 조남동 664-1 물왕프라자 1층,경기도,시흥시,조남동,37.3748344,126.8479705
배스킨라빈스,시흥은계점,경기 시흥시 은행동 646-4,경기도,시흥시,은행동,37.4375938,126.8016721
배스킨라빈스,시흥은행점,"경기 시흥시 대은로 83, 루비프라자 105호",경기도,시흥시,대야동,37.4449688,126.7975125
배스킨라빈스,시흥은계대야역점,"경기 시흥시 은계로 341 (대야동) 대야역전프라자 101호,102호",경기도,시흥시,대야동,37.4497897,126.7954642
배스킨라빈스,시흥대야점,경기 시흥시 대야동 543-1,경기도,시흥시,대야동,37.4431844,126.7928267
배스킨라빈스,시흥삼미점,경기 시흥시 신천동 712-7,경기도,시흥시,신천동,37.4412477,126.7840863
배스킨라빈스,시흥시청점,경기 시흥시 장현동 538-3 1층,경기도,시흥시,장현동,37.3808994,126.7996737
배스킨라빈스,시흥능곡점,"경기 시흥시 능곡로 188 (능곡동, 효창프라자), 110호",경기도,시흥시,능곡동,37.3684037,126.8103734
배스킨라빈스,시흥장현점,경기 시흥시 장현동 432,경기도,시흥시,장현동,37.3724687,126.7956475
배스킨라빈스,시흥장곡점,경기 시흥시 장곡동 817-1,경기도,시흥시,장곡동,37.3781054,126.7839923
배스킨라빈스,시흥거모점,경기 시흥시 군자로 526 도일그랜드프라자,경기도,시흥시,거모동,37.3433541,126.7851834
배스킨라빈스,시흥월곶점,경기 시흥시 월곶동 1014-1,경기도,시흥시,월곶동,37.3887724,126.7380488
배스킨라빈스,시흥배곧점,"경기 시흥시 배곧3로 96 (정왕동, M플러스) 115호",경기도,시흥시,배곧동,37.3698189,126.7300526
배스킨라빈스,시흥정왕역점,"경기 시흥시 마유로 416 (정왕동, 월드프라자)",경기도,시흥시,정왕동,37.3516037,126.7412650
배스킨라빈스,,"경기 시흥시 함송로 24 (정왕동, 세종프라자)",경기도,시흥시,정왕동,37.3632231,126.7303888
배스킨라빈스,시화세종점,경기 시흥시 함송로 16 (정왕동),경기도,시흥시,정왕동,37.3637637,126.7295625
배스킨라빈스,시화성담스퀘어점,"경기 시흥시 정왕대로 210 (정왕동, E MART시화점) 1층",경기도,시흥시,정왕동,37.3459310,126.7369006
배스킨라빈스,시흥배곧한라점,경기 시흥시 정왕동 2558,경기도,시흥시,정왕동,37.3614206,126.7188122
배스킨라빈스,시화정왕점,경기 시흥시 정왕동 1861-4,경기도,시흥시,정왕동,37.3539317,126.7239578
배스킨라빈스,시화홈플러스점,경기 시흥시 정왕동 2166-4 시화홈플러스 1층,경기도,시흥시,정왕동,37.3452854,126.7251012
배스킨라빈스,안산부곡점,"경기 안산시 상록구 부곡로 114 (부곡동), 1층",경기도,안산시 상록구,부곡동,37.3319496,126.8630403
배스킨라빈스,안산반월점,경기 안산시 상록구 건건동 635-13,경기도,안산시 상록구,건건동,37.3045878,126.9019345
배스킨라빈스,안산월피점,경기 안산시 상록구 월피동 445-18 로얄프라자,경기도,안산시 상록구,월피동,37.3293769,126.8469267
배스킨라빈스,안산일동점,경기 안산시 상록구 일동 621-17,경기도,안산시 상록구,일동,37.3088648,126.8686510
배스킨라빈스,안산선부수정한양점,"경기 안산시 단원구 선부로 199 (선부동, 동진프라자)",경기도,안산시 단원구,선부동,37.3418439,126.8171043
배스킨라빈스,안산롯데마트점,"경기 안산시 상록구 항가울로 422 (성포동, 롯데마트 안산점) 1층",경기도,안산시 상록구,성포동,37.3177428,126.8470368
배스킨라빈스,안산월드점,"경기 안산시 단원구 고잔1길 49, 운암프라자111호",경기도,안산시 단원구,고잔동,37.3183827,126.8390479
배스킨라빈스,안산선부점,"경기 안산시 단원구 달미로 10, 산호상가 115호",경기도,안산시 단원구,선부동,37.3370409,126.8135137
배스킨라빈스,안산상록수점,경기 안산시 상록구 용신로 394 서해프라자,경기도,안산시 상록구,본오동,37.3013879,126.8658778
배스킨라빈스,안산중앙역점,"경기 안산시 단원구 예술대학로 17 (고잔동, 안산중앙노블레스)",경기도,안산시 단원구,고잔동,37.3187059,126.8365081
배스킨라빈스,안산한대점,경기 안산시 상록구 광덕1로 370 코러스프라자,경기도,안산시 상록구,이동,37.3076190,126.8509888
배스킨라빈스,고잔롯데캐슬점,"경기 안산시 단원구 고잔동 585-4, 상가동 101호, 102호",경기도,안산시 단원구,고잔동,37.3216941,126.8272550
배스킨라빈스,안산고잔점,"경기 안산시 단원구 광덕3로 178, 화승타운 120호",경기도,안산시 단원구,고잔동,37.3120538,126.8323498
배스킨라빈스,안산본오점,경기 안산시 상록구 본오동 882-7,경기도,안산시 상록구,본오동,37.2933740,126.8625220
배스킨라빈스,안산고잔홈플러스점,"경기 안산시 단원구 광덕대로 175, 홈플러스 1층",경기도,안산시 단원구,고잔동,37.3119422,126.8288995
배스킨라빈스,안산단원광장점,"경기 안산시 단원구 광덕2로 163, 110(고잔동, 삼영프라자)",경기도,안산시 단원구,고잔동,37.3100959,126.8283881
배스킨라빈스,안산원곡점,"경기 안산시 단원구 라성로 36, 반월종합상가 B동 1호",경기도,안산시 단원구,원곡동,37.3271917,126.8004625
배스킨라빈스,안산초지점,"경기 안산시 단원구 초지로 114 (초지동, 주공프라자) 113, 114호",경기도,안산시 단원구,초지동,37.3088392,126.8152884
배스킨라빈스,안산트레이더스점,"경기 안산시 단원구 중앙대로 397, 2층 (신길동, 이마트트레이더스 신길점)",경기도,안산시 단원구,신길동,37.3311974,126.7850078
배스킨라빈스,안산사동점,경기 안산시 상록구 항가울로 33 (사동),경기도,안산시 상록구,사동,37.2849148,126.8471623
배스킨라빈스,고잔이마트점,"경기 안산시 단원구 원포공원1로 46 (초지동, 이마트)",경기도,안산시 단원구,초지동,37.3031619,126.8129225
배스킨라빈스,안산그랑시티점,"경기 안산시 상록구 해양4로 31 (사동, 그랑시티자이) 113호, 114호",경기도,안산시 상록구,사동,37.2827895,126.8304274
배스킨라빈스,안성공도점,경기 안성시 공도읍 공도2로 14,경기도,안성시,공도읍,36.9997696,127.1699513
배스킨라빈스,안성스타필드점,"경기 안성시 공도읍 서동대로 3930-39 2층 2146호 (진사리, 스타필드 안성)",경기도,안성시,공도읍,36.9945212,127.1473035
배스킨라빈스,안성중앙점,경기 안성시 중앙로 401 (동본동),경기도,안성시,동본동,37.0072819,127.2714578
배스킨라빈스,안양동편마을점,"경기 안양시 동안구 동편로 6, 115",경기도,안양시 동안구,관양동,37.4055499,126.9714521
배스킨라빈스,인덕원역점,경기 안양시 동안구 관양동 1502-4,경기도,안양시 동안구,관양동,37.4007077,126.9762312
배스킨라빈스,안양관양점,경기 안양시 동안구 관평로 296,경기도,안양시 동안구,관양동,37.4027034,126.9572356
배스킨라빈스,안양평촌역점,경기 안양시 동안구 관평로170번길 43,경기도,안양시 동안구,관양동,37.3933191,126.9631752
배스킨라빈스,평촌새중앙점,경기 안양시 동안구 귀인로 289 (평촌동),경기도,안양시 동안구,평촌동,37.3886227,126.9707334
배스킨라빈스,안양임곡점,경기 안양시 동안구 임곡로 40 (비산동) 1층,경기도,안양시 동안구,비산동,37.4030329,126.9325600
배스킨라빈스,안양평촌홈플러스점,경기 안양시 동안구 동안로 162 홈플러스 평촌점 1층,경기도,안양시 동안구,비산동,37.3932706,126.9504247
배스킨라빈스,안양비산점,경기 안양시 동안구 관악대로 129,경기도,안양시 동안구,비산동,37.3992053,126.9384246
배스킨라빈스,안양관악역점,경기 안양시 만안구 석수동 103-5,경기도,안양시 만안구,석수동,37.4198971,126.9091819
배스킨라빈스,평촌범계2점,경기 안양시 동안구 호계동 1050,경기도,안양시 동안구,호계동,37.3899790,126.9535116
배스킨라빈스,평촌범계점,"경기 안양시 동안구 평촌대로223번길 64 (호계동, 제일빌딩)",경기도,안양시 동안구,호계동,37.3905180,126.9522651
배스킨라빈스,평촌학원가점,"경기 안양시 동안구 평촌대로 141, 103, 104호",경기도,안양시 동안구,호계동,37.3846040,126.9587776
배스킨라빈스,안양덕천래미안점,경기 안양시 만안구 안양동 1393,경기도,안양시 만안구,안양동,37.3947865,126.9324171
배스킨라빈스,안양역지하상가점,경기 안양시 만안구 만안로 230 안양민자역사,경기도,안양시 만안구,안양동,37.4011114,126.9229534
배스킨라빈스,안양만안점,경기 안양시 만안구 안양동 695-208 1층 101호,경기도,안양시 만안구,안양동,37.4016907,126.9184250
배스킨라빈스,안양일번가점,경기 안양시 만안구 안양동 674-139,경기도,안양시 만안구,안양동,37.3987803,126.9222234
배스킨라빈스,안양박달점,경기 안양시 만안구 양화로 115 (박달동),경기도,안양시 만안구,박달동,37.4029571,126.9100285
배스킨라빈스,안양만안구청점,"경기 안양시 만안구 안양로 119, 1층 (안양동, 계양빌딩)",경기도,안양시 만안구,안양동,37.3851838,126.9323938
배스킨라빈스,안양호계점,경기 안양시 동안구 경수대로 572,경기도,안양시 동안구,호계동,37.3738368,126.9578350
배스킨라빈스,안양충훈부점,경기 안양시 만안구 충훈로 100,경기도,안양시 만안구,석수동,37.4075595,126.8973533
배스킨라빈스,양주백석점,경기 양주시 백석읍 호명로 72 (복지리),경기도,양주시,백석읍,37.7871169,126.9920292
배스킨라빈스,양주고읍점,경기 양주시 고읍남로 18,경기도,양주시,광사동,37.7949810,127.0794530
배스킨라빈스,양주자이점,경기 양주시 삼숭동 685-1,경기도,양주시,삼숭동,37.7960498,127.1059015
배스킨라빈스,양주덕계점,경기 양주시 평화로 1437,경기도,양주시,덕계동,37.8193245,127.0462806
배스킨라빈스,옥정제이드웰점,경기 양주시 옥정동로4길 3 (옥정동),경기도,양주시,옥정동,37.8148751,127.0992793
배스킨라빈스,양주옥정점,경기 양주시 옥정동 963-14,경기도,양주시,옥정동,37.8185626,127.0922358
배스킨라빈스,양주덕정점,경기 양주시 회정로 134,경기도,양주시,덕정동,37.8371569,127.0684721
배스킨라빈스,양평시장점,경기 양평군 양평읍 양평시장길 2,경기도,양평군,양평읍,37.4895802,127.4929557
배스킨라빈스,양평용문점,경기 양평군 용문면 다문리 729-11,경기도,양평군,용문면,37.4845160,127.5939961
배스킨라빈스,여주중앙로점,경기 여주시 세종로 14번지길 18,경기도,여주시,홍문동,37.2967664,127.6366295
배스킨라빈스,여주오학점,경기 여주시 오학동 286-4,경기도,여주시,오학동,37.3083234,127.6432164
배스킨라빈스,경기연천점,경기 연천군 전곡읍 전곡로 162,경기도,연천군,전곡읍,38.0265604,127.0681096
배스킨라빈스,오산세교점,경기 오산시 수청로 188,경기도,오산시,금암동,37.1773828,127.0457071
배스킨라빈스,오산수청점,"경기 오산시 오산대역로 214 (수청동) G플레이스 112호, 113호(일부)",경기도,오산시,수청동,37.1708567,127.0655846
배스킨라빈스,오산세교홈플러스점,"경기 오산시 청학로 238 (수청동, 홈플러스), 1층",경기도,오산시,수청동,37.1701442,127.0618088
배스킨라빈스,오산궐동점,경기 오산시 대호로 96 (궐동),경기도,오산시,궐동,37.1587252,127.0544740
배스킨라빈스,오산운천점,"경기 오산시 오산동 919-17, 1층 108호, 109호 절반",경기도,오산시,오산동,37.1562395,127.0780322
배스킨라빈스,오산시티자이점,"경기 오산시 부산중앙로 12 (부산동, 오산시티자이 2단지)",경기도,오산시,부산동,37.1494852,127.0920826
배스킨라빈스,오산운암점,"경기 오산시 성호대로 124 (원동, 신협빌딩) 103호",경기도,오산시,원동,37.1484953,127.0751915
배스킨라빈스,오산터미널점,경기 오산시 원동 762-2,경기도,오산시,원동,37.1463364,127.0687980
배스킨라빈스,오산누읍점,경기 오산시 발안로 1348 (누읍동),경기도,오산시,누읍동,37.1409950,127.0466569
배스킨라빈스,오산이마트점,경기 오산시 경기대로 181,경기도,오산시,원동,37.1406620,127.0727140
배스킨라빈스,오산갈곶점,"경기 오산시 원동 807-8 101호, 102호",경기도,오산시,원동,37.1331772,127.0693381
배스킨라빈스,용인동천2점,경기 용인시 수지구 동천로 36 영재빌딩,경기도,용인시 수지구,동천동,37.3407531,127.0990165
배스킨라빈스,용인동천점,"경기 용인시 수지구 문인로54번길 2 (동천동, 수지하우비)",경기도,용인시 수지구,동천동,37.3336823,127.0974591
배스킨라빈스,용인새터점,경기 용인시 수지구 현암로 128 센타프라자,경기도,용인시 수지구,죽전동,37.3314954,127.1235041
배스킨라빈스,용인신봉점,"경기 용인시 수지구 신봉2로 2 센트럴 쇼핑몰 124,125호",경기도,용인시 수지구,신봉동,37.3232084,127.0780476
배스킨라빈스,용인수지점,경기 용인시 수지구 문정로 22 (풍덕천동),경기도,용인시 수지구,풍덕천동,37.3229103,127.0961245
배스킨라빈스,수지이마트점,경기 용인시 수지구 수지로 203 E 마트 지하1층,경기도,용인시 수지구,신봉동,37.3197105,127.0832813
배스킨라빈스,죽전이마트점,경기 용인시 수지구 포은대로 552 이마트 지하1층,경기도,용인시 수지구,죽전동,37.3253071,127.1098259
배스킨라빈스,용인성복점,"경기 용인시 수지구 성복2로 100 (성복동, 예반 아이엔 프라자)",경기도,용인시 수지구,성복동,37.3154580,127.0752798
배스킨라빈스,죽전꽃메마을점,"경기 용인시 기흥구 죽전로 57 엘림프라자 1층 108호,109호 (보정동, 호암빌딩)",경기도,용인시 기흥구,보정동,37.3207492,127.1151526
배스킨라빈스,수지롯데몰점,경기 용인시 수지구 성복동 23 2층 배스킨라빈스 수지롯데몰,경기도,용인시 수지구,성복동,37.3127488,127.0833446
배스킨라빈스,용인상현점,경기 용인시 수지구 만현로 100 거묵프라자 134호,경기도,용인시 수지구,상현동,37.3078007,127.0845117
배스킨라빈스,광교상현역점,경기 용인시 수지구 상현동 502-10 광교스타 천 1층,경기도,용인시 수지구,상현동,37.2977241,127.0693289
배스킨라빈스,용인연원마을점,"경기 용인시 기흥구 용구대로 2398 (마북동, 연원마을벽산아파트)",경기도,용인시 기흥구,마북동,37.3003072,127.1072867
배스킨라빈스,용인경찰대점,경기 용인시 기흥구 구성로 94,경기도,용인시 기흥구,언남동,37.2940084,127.1195976
배스킨라빈스,용인흥덕점,경기 용인시 기흥구 흥덕중앙로 41,경기도,용인시 기흥구,영덕동,37.2765064,127.0715651
배스킨라빈스,용인청덕점,"경기 용인시 기흥구 구성3로28번길 16 (청덕동, 우성프라자)",경기도,용인시 기흥구,청덕동,37.2949940,127.1521219
배스킨라빈스,용인구갈점,경기 용인시 기흥구 구갈로 74,경기도,용인시 기흥구,구갈동,37.2811344,127.1117759
배스킨라빈스,용인기흥역점,"경기 용인시 기흥구 구갈동 227-34, 기흥역지웰푸르지오상가동 1층",경기도,용인시 기흥구,구갈동,37.2735084,127.1147348
배스킨라빈스,용인모현점,"경기 용인시 처인구 모현면 백옥대로 2386 (왕산리, 경희한의원)",경기도,용인시 처인구,모현읍,37.3365177,127.2497731
배스킨라빈스,용인동백1호점,"경기 용인시 기흥구 동백중앙로 352, 104호",경기도,용인시 기흥구,동백동,37.2821547,127.1594371
배스킨라빈스,용인상갈점,"경기 용인시 기흥구 금화로 103 (상갈동, 정진프라자)",경기도,용인시 기흥구,상갈동,37.2662098,127.1066025
배스킨라빈스,용인강남대점,경기 용인시 기흥구 강남동로 6,경기도,용인시 기흥구,구갈동,37.2714398,127.1277556
배스킨라빈스,용인어정역점,"경기 용인시 기흥구 중동 673, 라비스타A동 103호, 104호",경기도,용인시 기흥구,중동,37.2759316,127.1446532
배스킨라빈스,용인동백중동점,"경기 용인시 기흥구 동백중앙로 273 (중동, 동백 훼미리프라자Ⅱ)103,104호",경기도,용인시 기흥구,중동,37.2770114,127.1534587
배스킨라빈스,용인상하점,경기 용인시 기흥구 상하동 163-9,경기도,용인시 기흥구,상하동,37.2579620,127.1426106
배스킨라빈스,용인보라점,경기 용인시 기흥구 한보라1로 8,경기도,용인시 기흥구,보라동,37.2539825,127.1094197
배스킨라빈스,용인서천점,경기 용인시 기흥구 서천동 813,경기도,용인시 기흥구,서천동,37.2371264,127.0727385
배스킨라빈스,용인둔전점,경기 용인시 처인구 포곡읍 포곡로 121,경기도,용인시 처인구,포곡읍,37.2701833,127.2184398
배스킨라빈스,용인유림점,경기 용인시 처인구 백옥대로1392번길 2 (유방동),경기도,용인시 처인구,유방동,37.2590122,127.2129611
배스킨라빈스,용인명지점,"경기 용인시 처인구 역북동 750-1 삼가프라자 103호, 104호",경기도,용인시 처인구,역북동,37.2327547,127.1877737
배스킨라빈스,용인1호점,경기 용인시 처인구 금령로 99번길 (김량장동 130-6번지),경기도,용인시 처인구,김량장동,37.2357636,127.2074482
배스킨라빈스,용인양지점,경기 용인시 처인구 양지면 남평로 2 (남곡리),경기도,용인시 처인구,양지면,37.2328882,127.2858267
배스킨라빈스,용인한숲시티점,"경기 용인시 처인구 남사읍 한숲로 84 (완장리, e편한세상 용인 한숲시티) 6단지 상가 104호",경기도,용인시 처인구,남사읍,37.1545927,127.1741061
배스킨라빈스,의왕포일점,"경기 의왕시 안양판교로 99 (포일동, 스마일타워)",경기도,의왕시,포일동,37.3956065,126.9851245
배스킨라빈스,의왕내손점,경기 의왕시 갈미2로 40,경기도,의왕시,내손동,37.3794659,126.9714294
배스킨라빈스,의왕백운점,"경기 의왕시 백운중앙로 45 (학의동, 의왕백운해링턴플레이스 2단지) 상가 1호",경기도,의왕시,학의동,37.3722616,127.0050732
배스킨라빈스,의왕오전점,경기 의왕시 원골로 14,경기도,의왕시,오전동,37.3585708,126.9678722
배스킨라빈스,의왕서해그랑블점,경기 의왕시 오전동 887-1,경기도,의왕시,오전동,37.3590460,126.9705717
배스킨라빈스,의왕역점,경기 의왕시 부곡중앙북3길 1,경기도,의왕시,삼동,37.3212990,126.9507696
배스킨라빈스,의정부망월사역점,경기 의정부시 호원동 464,경기도,의정부시,호원동,37.7085718,127.0478627
배스킨라빈스,의정부회룡역점,경기 의정부시 평화로 363-8,경기도,의정부시,호원동,37.7244975,127.0476997
배스킨라빈스,의정부범골점,"경기 의정부시 호동로 67 (호원동, 화성프라자)",경기도,의정부시,호원동,37.7279274,127.0433266
배스킨라빈스,의정부장암점,"경기 의정부시 동일로 456 (신곡동, 박사빌딩) 1층",경기도,의정부시,신곡동,37.7289920,127.0597468
배스킨라빈스,의정부역서부점,경기 의정부시 의정부동 494 센트럴타워 1층 A107호,경기도,의정부시,의정부동,37.7380313,127.0436104
배스킨라빈스,의정부고산점,"경기 의정부시 세석로 30 (산곡동) 지상 1층, 현대본타워 105호",경기도,의정부시,산곡동,37.7294025,127.1100955
배스킨라빈스,의정부용현점,경기 의정부시 용현동 264-11 105호,경기도,의정부시,용현동,37.7349013,127.0814496
배스킨라빈스,의정부중앙로점,경기 의정부시 행복로 1,경기도,의정부시,의정부동,37.7391268,127.0478501
배스킨라빈스,의정부신곡점,경기 의정부시 추동로 9 휴먼시티,경기도,의정부시,신곡동,37.7430184,127.0568800
배스킨라빈스,의정부민락점,경기 의정부시 용민로 133,경기도,의정부시,민락동,37.7409506,127.0906809
배스킨라빈스,의정부가능역점,"경기 의정부시 평화로 626 (의정부동, 성원빌딩)",경기도,의정부시,의정부동,37.7477102,127.0456568
배스킨라빈스,의정부송산점,경기도 의정부시 오목로 207          ,경기도,의정부시,민락동,37.7449282,127.0986098
배스킨라빈스,의정부금오점,"경기 의정부시 청사로47번길 15 (금오동, 골드피아) 112호",경기도,의정부시,금오동,37.7521557,127.0690095
배스킨라빈스,의정부홈플러스점,"경기 의정부시 청사로 38 금오동, 삼성홈플러스 1층",경기도,의정부시,금오동,37.7521086,127.0709831
배스킨라빈스,의정부녹양점,경기 의정부시 체육로 306-24,경기도,의정부시,녹양동,37.7601331,127.0413608
배스킨라빈스,의정부낙양점,"경기 의정부시 용민로 407 (낙양동, 한덕프라자)",경기도,의정부시,낙양동,37.7556234,127.1135956
배스킨라빈스,이천마장점,경기 이천시 마장면 오천로 42 (오천리) 1층,경기도,이천시,마장면,37.2529866,127.3525918
배스킨라빈스,덕평자연휴게소점,"경기 이천시 마장면 덕이로154번길 287-76 (각평리, 덕평휴게소)",경기도,이천시,마장면,37.2413095,127.3897695
배스킨라빈스,이천창전점,경기 이천시 창전동 157-17,경기도,이천시,창전동,37.2810477,127.4421383
배스킨라빈스,이천증포점,경기 이천시 이섭대천로1439번길 4 (증포동),경기도,이천시,증포동,37.2963468,127.4570688
배스킨라빈스,이천중앙로점,경기 이천시 어재연로37번길 12,경기도,이천시,창전동,37.2802046,127.4449131
배스킨라빈스,이천터미널점,경기 이천시 이섭대천로 1200 종합버스터미널 상가 148호,경기도,이천시,중리동,37.2773891,127.4469874
배스킨라빈스,이천신하점,경기 이천시 부발읍 경충대로 2216-15 (신하리),경기도,이천시,부발읍,37.2595789,127.4794293
배스킨라빈스,장호원점,경기 이천시 장호원읍 장터로 45-13 (장호원리),경기도,이천시,장호원읍,37.1165368,127.6294659
배스킨라빈스,파주봉일천점,경기 파주시 조리읍 봉천로 35,경기도,파주시,조리읍,37.7434936,126.8077100
배스킨라빈스,운정야당역점,경기 파주시 야당동 1070,경기도,파주시,야당동,37.7137998,126.7599884
배스킨라빈스,파주운정이마트점,경기 파주시 한울로 123,경기도,파주시,동패동,37.7103661,126.7451109
배스킨라빈스,운정가람마을점,"경기 파주시 가람로116번길 45 (와동동) 퍼스트삼융 101호, 102호",경기도,파주시,와동동,37.7353546,126.7642690
배스킨라빈스,운정산내마을점,경기 파주시 심학산로423번길 7-33 (목동동),경기도,파주시,목동동,37.7194340,126.7372442
배스킨라빈스,운정해솔가람마을점,경기 파주시 미래로602번길 3 윤정프라자 1층,경기도,파주시,와동동,37.7312761,126.7516807
배스킨라빈스,운정초롱꽃마을점,경기 파주시 동패동 산 62 106호,경기도,파주시,동패동,37.7125526,126.7188483
배스킨라빈스,파주운정홈플러스점,경기 파주시 목동동 927 홈플러스 파주운정점 지하1층,경기도,파주시,목동동,37.7295278,126.7367686
배스킨라빈스,운정해오름마을점,경기 파주시 청암로 75 (다율동) 상상메디컬프라자,경기도,파주시,다율동,37.7348145,126.7330309
배스킨라빈스,파주금촌역점,경기 파주시 중앙로 328 (금촌동) MH타워 1층,경기도,파주시,금촌동,37.7648794,126.7745263
배스킨라빈스,파주금능점,경기 파주시 금빛로 22,경기도,파주시,금촌동,37.7516399,126.7669567
배스킨라빈스,파주교하점,"경기 파주시 청석로 260 (동패동, 트리플메디칼타워)",경기도,파주시,동패동,37.7250679,126.7176745
배스킨라빈스,파주문산점,경기 파주시 문산읍 문향로 71 (문산리),경기도,파주시,문산읍,37.8583454,126.7851674
배스킨라빈스,파주문산홈플러스점,경기 파주시 문산읍 당동리 880,경기도,파주시,문산읍,37.8692643,126.7848971
배스킨라빈스,파주적성점,경기 파주시 적성면 마지리 46-9,경기도,파주시,적성면,37.9547312,126.9187744
배스킨라빈스,송탄신장점,경기 평택시 신장동 314-6,경기도,평택시,신장동,37.0810118,127.0514591
배스킨라빈스,평택독곡점,경기 평택시 독곡동 486,경기도,평택시,독곡동,37.0805695,127.0637935
배스킨라빈스,송탄서정점,경기 평택시 서정동 817-5,경기도,평택시,서정동,37.0670617,127.0630278
배스킨라빈스,,경기 평택시 관광특구로 37,경기도,평택시,서정동,37.0670743,127.0630281
배스킨라빈스,평택이충점,"경기 평택시 이충로 49-27 (이충동, 하이존2)",경기도,평택시,이충동,37.0602770,127.0659521
배스킨라빈스,평택고덕파밀리에,경기도 평택시 고덕중앙로 200-4 우성고덕타워 1층 117호          ,경기도,평택시,고덕동,37.0477733,127.0442098
배스킨라빈스,송탄홈플러스점,경기 평택시 경기대로 1103,경기도,평택시,장당동,37.0450127,127.0594138
배스킨라빈스,평택이마트점,"경기 평택시 영신로 29 (지제동, 이마트) 이마트 1층",경기도,평택시,지제동,37.0210908,127.0755819
배스킨라빈스,평택지제더샵점,"경기 평택시 동삭1로22번길 19-13, 1층 103호 (동삭동)",경기도,평택시,동삭동,37.0201756,127.0935331
배스킨라빈스,평택동삭점,"경기 평택시 동삭동 산 104-3, 센트럴자이 4단지상 129,130",경기도,평택시,동삭동,37.0192340,127.1024486
배스킨라빈스,평택청북점,"경기 평택시 청북읍 안청로 336 (옥길리, 골드테라스) 104, 105호",경기도,평택시,청북읍,37.0179751,126.9157481
배스킨라빈스,평택법원점,경기 평택시 평남로 1039 (동삭동),경기도,평택시,동삭동,37.0094403,127.0960194
배스킨라빈스,평택세교점,경기 평택시 세교4로 7 (세교동) 1층,경기도,평택시,세교동,37.0051548,127.0852202
배스킨라빈스,평택소사벌점,"경기 평택시 평남로 933 (비전동, 태성빌딩)",경기도,평택시,비전동,37.0040516,127.1048510
배스킨라빈스,평택역점,경기 평택시 평택동 62-8,경기도,평택시,평택동,36.9929904,127.0867945
배스킨라빈스,평택비전점,경기 평택시 경기대로 269,경기도,평택시,비전동,36.9947285,127.1129861
배스킨라빈스,평택용죽점,경기 평택시 용죽3로 14 (용이동),경기도,평택시,용이동,36.9931210,127.1257892
배스킨라빈스,평택용이점,경기 평택시 용이동 467-1,경기도,평택시,용이동,36.9937519,127.1361994
배스킨라빈스,평택안중점,경기 평택시 안중읍 안중로 109-2 (안중리),경기도,평택시,안중읍,36.9889796,126.9288157
배스킨라빈스,평택안중홈플러스점,경기 평택시 안중읍 현화리 산 274번지,경기도,평택시,안중읍,36.9896332,126.9183888
배스킨라빈스,평택포승점,경기 평택시 포승읍 여술로 20 (도곡리),경기도,평택시,포승읍,36.9877168,126.8447486
배스킨라빈스,평택팽성점,경기 평택시 팽성읍 부용로 31 (송화리),경기도,평택시,팽성읍,36.9635518,127.0591034
배스킨라빈스,포천송우리점,"경기 포천시 소흘읍 태봉로 138 (송우리, 희성RICH프라자)",경기도,포천시,소흘읍,37.8299878,127.1398899
배스킨라빈스,포천이마트점,경기 포천시 호국로 915 (설운동) 이마트 포천점 1층,경기도,포천시,설운동,37.8477222,127.1605561
배스킨라빈스,포천신읍점,경기 포천시 중앙로 129-1,경기도,포천시,신읍동,37.8979470,127.2035724
배스킨라빈스,포천일동RE~0303점,경기 포천시 일동면 화동로 1052-1,경기도,포천시,일동면,37.9572456,127.3177691
배스킨라빈스,위례트레이더스점,"경기 하남시 위례대로 200 (학암동, 스타필드시티 위례점) 지하 3층",경기도,하남시,학암동,37.4801357,127.1484041
배스킨라빈스,하남감일역점,"경기 하남시 감일중앙로 60 (감이동, 감일 벨솔레 파크)",경기도,하남시,감이동,37.5088806,127.1539895
배스킨라빈스,북위례힐스테이트점,"경기 하남시 위례학암로14번길 18 (학암동) 서미프라자 107, 108호",경기도,하남시,학암동,37.4874441,127.1564189
배스킨라빈스,하남감일포웰시티점,"경기 하남시 감일백제로 101 (감이동) 아리온프라자 101호, 102호",경기도,하남시,감이동,37.5045413,127.1616371
배스킨라빈스,하남미사황산점,"경기 하남시 미사강변서로 22 (풍산동, 에코큐브 지식산업센터) 106, 107호",경기도,하남시,풍산동,37.5525647,127.1843589
배스킨라빈스,하남미사점,"경기 하남시 미사강변대로 228 (망월동, 메디프라자)",경기도,하남시,망월동,37.5698869,127.1839902
배스킨라빈스,하남신장점,경기 하남시 신장로 133,경기도,하남시,덕풍동,37.5382717,127.2034892
배스킨라빈스,미사역점,경기 하남시 망월동 1121-2,경기도,하남시,망월동,37.5611004,127.1932978
배스킨라빈스,하남이마트점,경기 하남시 덕풍서로 70 1층,경기도,하남시,덕풍동,37.5527848,127.2053856
배스킨라빈스,하남시청점,경기 하남시 신장동 519-3,경기도,하남시,신장동,37.5401462,127.2135226
배스킨라빈스,하남트레이더스점,"경기 하남시 미사대로 750 (신장동, 스타필드 하남) 지하 2층",경기도,하남시,신장동,37.5454628,127.2238404
배스킨라빈스,,경기 화성시 영통로61번길 6,경기도,화성시,반월동,37.2355008,127.0611248
배스킨라빈스,신영통점,경기 화성시 반월동 864-1,경기도,화성시,반월동,37.2355159,127.0610279
배스킨라빈스,송산그린시티점,경기도 화성시 노들길 6-18          ,경기도,화성시,새솔동,37.2808015,126.8191721
배스킨라빈스,화성봉담이마트점,경기 화성시 봉담읍 효행로 278 화성봉담이마트 지하 1층,경기도,화성시,봉담읍,37.2225940,126.9726970
배스킨라빈스,화성봉담초교점,경기 화성시 봉담읍 상리2길 51 (상리),경기도,화성시,봉담읍,37.2245561,126.9471441
배스킨라빈스,화성태안점,"경기 화성시 효행로 1052 (병점동, 씨네샤르망) A동 108호",경기도,화성시,병점동,37.2139460,127.0424570
배스킨라빈스,화성수원대점,경기 화성시 봉담읍 와우안길 22,경기도,화성시,봉담읍,37.2144688,126.9788923
배스킨라빈스,동탄이마트점,"경기 화성시 동탄중앙로 376, 지하1층",경기도,화성시,석우동,37.2143367,127.0797973
배스킨라빈스,화성봉담점,경기 화성시 봉담읍 동화길 85 이원타워 106호,경기도,화성시,봉담읍,37.2169268,126.9583456
배스킨라빈스,동탄능동마을점,경기 화성시 반송동 43-1,경기도,화성시,반송동,37.2088621,127.0615573
배스킨라빈스,화성병점2점,경기 화성시 병점2로 44,경기도,화성시,병점동,37.2066208,127.0414563
배스킨라빈스,화성안녕점,경기 화성시 용주로 9 (안녕동) 1층,경기도,화성시,안녕동,37.2054106,127.0157579
배스킨라빈스,병점홈플러스점,"경기 화성시 경기대로 985 (병점동, 홈플러스 병점점) 1층",경기도,화성시,병점동,37.2037169,127.0367529
배스킨라빈스,동탄한빛마을점,"경기 화성시 동탄중심상가2길 2 (반송동, 아인슈타인 타워)106호, 107호",경기도,화성시,반송동,37.2057103,127.0722751
배스킨라빈스,동탄다원점,"경기 화성시 영천동 539-16, 골든프라자 1층 108호, 109호",경기도,화성시,영천동,37.2095774,127.1026376
배스킨라빈스,동탄홈플러스점,"경기 화성시 동탄중앙로 200 (반송동, 메타폴리스) 지하 4층",경기도,화성시,반송동,37.2029225,127.0688917
배스킨라빈스,동탄푸른마을점,경기 화성시 여울로 17 (능동),경기도,화성시,능동,37.2009263,127.0531203
배스킨라빈스,동탄여울공원점,"경기 화성시 동탄광역환승로 73 (오산동, 동탄역 반도유보라 아이비파크 E-27,28호8.0)",경기도,화성시,오산동,37.2026473,127.0907013
배스킨라빈스,동탄영천점,경기도 화성시 동탄순환대로 685          ,경기도,화성시,영천동,37.2059564,127.1109261
배스킨라빈스,동탄청계점,경기 화성시 동탄대로시범길 142 (청계동) 센텀프라자 107호,경기도,화성시,청계동,37.1999195,127.1133874
배스킨라빈스,동탄역점,"경기 화성시 동탄대로 489 (오산동, 동탄역우성타워) 108호, 109호",경기도,화성시,오산동,37.1973592,127.0982637
배스킨라빈스,동탄나루마을점,"경기 화성시 반송동 218-2, 1층 107호 (반송동, 가희프라자2)",경기도,화성시,반송동,37.1942140,127.0746756
배스킨라빈스,동탄트레이더스점,경기 화성시 동탄대로 451 (오산동) 이마트트레이더스동탄점 1층,경기도,화성시,오산동,37.1936737,127.0971496
배스킨라빈스,동탄에듀몰점,"경기 화성시 동탄기흥로353번길 100 (오산동) 지스타프라자 109호, 110호",경기도,화성시,오산동,37.1878637,127.0855999
배스킨라빈스,동탄목동점,"경기 화성시 목동 산 18, 우성스타파크A동 108호",경기도,화성시,목동,37.1826632,127.1243204
배스킨라빈스,화성남양점,경기 화성시 남양읍 남양리 1195-3,경기도,화성시,남양읍,37.2092466,126.8186510
배스킨라빈스,동탄산척신리점,"경기 화성시 산척동 산 118, 모닝그레이스 103호, 104호",경기도,화성시,산척동,37.1699630,127.1182914
배스킨라빈스,동탄호수공원점,"경기 화성시 동탄순환대로 127-5 (산척동, 우성센트럴타워) 1층 115호",경기도,화성시,산척동,37.1660899,127.1072809
배스킨라빈스,화성시청점,경기 화성시 남양읍 남양로 671 (남양리),경기도,화성시,남양읍,37.1984814,126.8260365
배스킨라빈스,화성사강점,"경기 화성시 송산면 사강리 643, B동 1층",경기도,화성시,송산면,37.2134910,126.7379931
배스킨라빈스,화성향남점,"경기 화성시 향남읍 발안로 116,중앙프라자 102호",경기도,화성시,향남읍,37.1310643,126.9228399
배스킨라빈스,화성향남홈플러스점,경기 화성시 향남읍 향남로 402 홈플러스 화성향남점 지상1층,경기도,화성시,향남읍,37.1307615,126.9218059
배스킨라빈스,화성향남2지구점,경기 화성시 향남읍 상신하길로298번길 7-1 (하길리) 향남2택지구 중심상업용지 35-3 108호,경기도,화성시,향남읍,37.1150199,126.9102706
배스킨라빈스,화성조암점,경기 화성시 우정읍 조암리 349-3,경기도,화성시,우정읍,37.0826102,126.8177155
배스킨라빈스,거제장평점,경남 거제시 장평로 69-6 (장평동),경상남도,거제시,장평동,34.8906712,128.6094224
배스킨라빈스,거제홈플러스점,"경남 거제시 장평로 12 (장평동, 디큐브백화점) B1F",경상남도,거제시,장평동,34.8907590,128.6164715
배스킨라빈스,거제중곡점,경남 거제시 중곡로 9,경상남도,거제시,고현동,34.8934617,128.6302285
배스킨라빈스,거제고현점,경남 거제시 고현로 99 1F,경상남도,거제시,고현동,34.8869277,128.6234384
배스킨라빈스,거제수월점,경남 거제시 수양로 455,경상남도,거제시,수월동,34.8924326,128.6411006
배스킨라빈스,거제옥포점,경남 거제시 옥포로16길 1,경상남도,거제시,옥포동,34.8928262,128.6913285
배스킨라빈스,거제상문점,경남 거제시 거제중앙로 1663 (상동동),경상남도,거제시,상동동,34.8696433,128.6364497
배스킨라빈스,거제아주점,경상남도 거제시 아주2로 39 배스킨라빈스 거제아주점          ,경상남도,거제시,아주동,34.8672772,128.6865709
배스킨라빈스,경남거창점,경남 거창군 거창읍 중앙로 115-2,경상남도,거창군,거창읍,35.6866433,127.9110795
배스킨라빈스,경남고성점,경남 고성군 고성읍 동외로 157,경상남도,고성군,고성읍,34.9753730,128.3256542
배스킨라빈스,김해진영점,경남 김해시 진영읍 김해대로361번길 8 106호,경상남도,김해시,진영읍,35.3074876,128.7297998
배스킨라빈스,김해본산점,경남 김해시 진영읍 진영리 1629-4,경상남도,김해시,진영읍,35.3078824,128.7353513
배스킨라빈스,김해삼계점,"경남 김해시 삼계중앙로 59,104(삼계동, 유토피아1층)",경상남도,김해시,삼계동,35.2610190,128.8716411
배스킨라빈스,김해주촌점,경남 김해시 주촌면 천곡리 1523-4,경상남도,김해시,주촌면,35.2340352,128.8391491
배스킨라빈스,김해구산점,경남 김해시 구산로 35,경상남도,김해시,구산동,35.2490303,128.8724751
배스킨라빈스,김해홈플러스점,경남 김해시 김해대로 2078,경상남도,김해시,내동,35.2419040,128.8702625
배스킨라빈스,김해장유점,경남 김해시 능동로167번길 1,경상남도,김해시,부곡동,35.2031928,128.8089716
배스킨라빈스,김해외동점,경남 김해시 내외중앙로 28,경상남도,김해시,외동,35.2323048,128.8665728
배스킨라빈스,김해대청점,"경남 김해시 번화1로80번길 15, 다성아워즈빌딩 103호",경상남도,김해시,대청동,35.1950523,128.8010403
배스킨라빈스,김해이마트점,경남 김해시 김해대로 2232 (외동),경상남도,김해시,외동,35.2293396,128.8722425
배스킨라빈스,김해인제대점,경남 김해시 인제로 185,경상남도,김해시,어방동,35.2452603,128.9036826
배스킨라빈스,김해갑오마을점,"경남 김해시 계동로102번길 27 (대청동, 울트라상가)",경상남도,김해시,대청동,35.1862494,128.7968449
배스킨라빈스,김해삼정점,"경남 김해시 활천로36번길 27-9, 1층 101호 (삼정동)",경상남도,김해시,삼정동,35.2321861,128.8956088
배스킨라빈스,김해율하점,경남 김해시 율하3로 42,경상남도,김해시,율하동,35.1716760,128.8145347
배스킨라빈스,김해율하2지구점,경남 김해시 장유동 874-9,경상남도,김해시,장유동,35.1667404,128.8265377
배스킨라빈스,경남남해점,경남 남해군 남해읍 화전로 77,경상남도,남해군,남해읍,34.8380866,127.8939196
배스킨라빈스,경남밀양점,경남 밀양시 내이동 916,경상남도,밀양시,내이동,35.4926914,128.7509452
배스킨라빈스,밀양삼문점,경남 밀양시 삼문중앙로 23,경상남도,밀양시,삼문동,35.4845243,128.7546784
배스킨라빈스,경남사천점,경남 사천시 사천읍 진삼로 1462,경상남도,사천시,사천읍,35.0816811,128.0863227
배스킨라빈스,경남사천사남점,"경남 사천시 사남면 조동길 61 (월성리, 사천 푸르지오)",경상남도,사천시,사남면,35.0616004,128.0654003
배스킨라빈스,경남사천벌리점,경남 사천시 주공로 19,경상남도,사천시,벌리동,34.9399988,128.0863116
배스킨라빈스,경남산청점,경남 산청군 산청읍 산청리 166-8,경상남도,산청군,산청읍,35.4165445,127.8766722
배스킨라빈스,양산북정점,경남 양산시 중앙로 313-1 (북정동 894-2),경상남도,양산시,북정동,35.3582024,129.0432233
배스킨라빈스,양산이마트점,경남 양산시 양산역6길 12 1층,경상남도,양산시,중부동,35.3368607,129.0263678
배스킨라빈스,양산물금점,"경남 양산시 물금읍 범어로 62 (범어리, 치선타운)",경상남도,양산시,물금읍,35.3287175,129.0143016
배스킨라빈스,양산중부1호점,경남 양산시 양산역6길 24,경상남도,양산시,중부동,35.3369296,129.0284870
배스킨라빈스,양산이지더원5차점,"경남 양산시 물금읍 물금로 57 (물금리, 양산 이지더원 5차 아파트)",경상남도,양산시,물금읍,35.3116205,128.9893407
배스킨라빈스,양산중부2호점,경남 양산시 양산역로 69 뉴양산프라자 102호,경상남도,양산시,중부동,35.3355371,129.0287359
배스킨라빈스,양산증산점,경남 양산시 물금읍 가촌리 1269-17 오즈시티 108호,경상남도,양산시,물금읍,35.3171907,129.0027817
배스킨라빈스,양산서창점,경남 양산시 서창로 170-1 (삼호동),경상남도,양산시,삼호동,35.4147677,129.1713233
배스킨라빈스,양산증산역점,경남 양산시 물금읍 야리로 112 (가촌리),경상남도,양산시,물금읍,35.3112180,129.0077799
배스킨라빈스,양산석산점,경남 양산시 동면 금오13길 16 (석산리),경상남도,양산시,동면,35.3171667,129.0257201
배스킨라빈스,양산트레이더스점,"경남 양산시 평산로 16 (평산동, 이마트트레이더스)",경상남도,양산시,평산동,35.3822570,129.1527536
배스킨라빈스,양산덕계점,경남 양산시 덕계11길 5,경상남도,양산시,덕계동,35.3751600,129.1514884
배스킨라빈스,경남의령점,경남 의령군 의령읍 행복로1길 87 (동동리),경상남도,의령군,의령읍,35.3196767,128.2686416
배스킨라빈스,진주초전점,경남 진주시 초전동 1631-4,경상남도,진주시,초전동,35.2087954,128.1135396
배스킨라빈스,진주금산점,경남 진주시 금산면 중천로 83 (장사리),경상남도,진주시,금산면,35.2176924,128.1463698
배스킨라빈스,진주대안점,경남 진주시 대안동 18-11,경상남도,진주시,대안동,35.1942565,128.0827949
배스킨라빈스,진주이마트점,"경남 진주시 진양호로 477 (인사동, 이마트) 지하 1층",경상남도,진주시,인사동,35.1915937,128.0774075
배스킨라빈스,진주신안점,경남 진주시 진양호로 288,경상남도,진주시,신안동,35.1789127,128.0647552
배스킨라빈스,진주하대점,"경남 진주시 하대로 85 (하대동, 럭스빌)",경상남도,진주시,하대동,35.1935894,128.1210141
배스킨라빈스,진주평거점,경남 진주시 새평거로 129 (평거동),경상남도,진주시,평거동,35.1709072,128.0610793
배스킨라빈스,진주과학기술대점,경남 진주시 동진로 36-1 (칠암동) 1층,경상남도,진주시,칠암동,35.1787490,128.0951984
배스킨라빈스,진주혁신도시점,경남 진주시 사들로 97 (충무공동),경상남도,진주시,충무공동,35.1762138,128.1485617
배스킨라빈스,진주충무공동점,경남 진주시 충무공동 82-5,경상남도,진주시,충무공동,35.1691426,128.1317982
배스킨라빈스,진주경상대점,경남 진주시 가좌동 639-6,경상남도,진주시,가좌동,35.1594691,128.1068760
배스킨라빈스,신진주역점,경남 진주시 가좌동 2064-2,경상남도,진주시,가좌동,35.1522087,128.1168268
배스킨라빈스,경남창녕점,경남 창녕군 창녕읍 창녕대로 18-1 (술정리),경상남도,창녕군,창녕읍,35.5416063,128.4905010
배스킨라빈스,창원무동점,경남 창원시 의창구 북면 동곡로 1 (무동리) 무동빌딩 106호,경상남도,창원시 의창구,북면,35.3165936,128.5852676
배스킨라빈스,창원감계점,"경남 창원시 의창구 북면 감계로 304 (감계리), 1층 101호",경상남도,창원시 의창구,북면,35.3019815,128.5940069
배스킨라빈스,마산호계점,경남 창원시 마산회원구 내서읍 호계리 182,경상남도,창원시 마산회원구,내서읍,35.2608934,128.5227126
배스킨라빈스,마산내서점,"경남 창원시 마산회원구 내서읍 삼계로 9 (삼계리, 남해횟집)",경상남도,창원시 마산회원구,내서읍,35.2318092,128.5037682
배스킨라빈스,창원소답점,경남 창원시 의창구 읍성로 55,경상남도,창원시 의창구,소답동,35.2651376,128.6240945
배스킨라빈스,창원팔용점,경남 창원시 의창구 팔용로 428 122호,경상남도,창원시 의창구,팔용동,35.2545844,128.6127800
배스킨라빈스,마산합성점,"경남 창원시 마산회원구 3.15대로 744 (합성동, 송하빌딩) 1층 103호",경상남도,창원시 마산회원구,합성동,35.2383086,128.5828914
배스킨라빈스,창원유니시티점,경남 창원시 의창구 중동 784-1,경상남도,창원시 의창구,중동,35.2566626,128.6250406
배스킨라빈스,창원도계점,경남 창원시 의창구 도계로60번길 5-19,경상남도,창원시 의창구,도계동,35.2582681,128.6382485
배스킨라빈스,창원동읍점,"경남 창원시 의창구 동읍 의창대로 856 (용잠리, 원창호수아파트)",경상남도,창원시 의창구,동읍,35.2768285,128.6852104
배스킨라빈스,마산석전0223점,"경남 창원시 마산회원구 율림교로 13 (양덕동, 메트로엠) 메트로M상가 1층 105호",경상남도,창원시 마산회원구,양덕동,35.2299238,128.5844689
배스킨라빈스,마산회원점,경남 창원시 마산회원구 북성로 103,경상남도,창원시 마산회원구,회원동,35.2164768,128.5702422
배스킨라빈스,마산양덕홈플러스점,경남 창원시 마산회원구 삼호로 56,경상남도,창원시 마산회원구,양덕동,35.2226443,128.5857529
배스킨라빈스,창원상남시장점,경남 창원시 성산구 마디미로 16번길 3,경상남도,창원시 성산구,상남동,35.2228604,128.6846111
배스킨라빈스,창원시티세븐점,경상남도 창원시 성산구 원이대로 320,경상남도,창원시 성산구,대원동,35.2396668,128.6544087
배스킨라빈스,마산합포점,경남 창원시 마산합포구 중앙동3가 2-3 108호 (315대로 255),경상남도,창원시 마산합포구,중앙동3가,35.2009838,128.5671407
배스킨라빈스,창원홈플러스점,경남 창원시 의창구 창원대로 415 1층,경상남도,창원시 의창구,팔용동,35.2340368,128.6436158
배스킨라빈스,창원봉곡점,경남 창원시 의창구 봉곡로123번길 2 (봉곡동),경상남도,창원시 의창구,봉곡동,35.2460692,128.6708335
배스킨라빈스,창원반송점,경남 창원시 성산구 원이대로473번길 9,경상남도,창원시 성산구,반림동,35.2348327,128.6694503
배스킨라빈스,신마산점,경남 창원시 마산합포구 월영동2길 2,경상남도,창원시 마산합포구,해운동,35.1793205,128.5585731
배스킨라빈스,창원용호,경상남도 창원시 성산구 용지로169번길 13 라이크빌 1층          ,경상남도,창원시 성산구,용호동,35.2304362,128.6809209
배스킨라빈스,마산월영점,경남 창원시 마산합포구 월영동 614-10,경상남도,창원시 마산합포구,월영동,35.1759590,128.5627329
배스킨라빈스,창원이마트점,경남 창원시 성산구 원이대로 608 1층,경상남도,창원시 성산구,중앙동,35.2265683,128.6801664
배스킨라빈스,창원상남사거리점,경남 창원시 성산구 상남동 22-8,경상남도,창원시 성산구,상남동,35.2203377,128.6831510
배스킨라빈스,창원상남점,경남 창원시 성산구 상남동 45-1 성원종합상가 1층 1121호,경상남도,창원시 성산구,상남동,35.2166948,128.6920668
배스킨라빈스,마산현동점,경남 창원시 마산합포구 현동4길 4 (우산동),경상남도,창원시 마산합포구,우산동,35.1514983,128.5532141
배스킨라빈스,창원남양점,경남 창원시 성산구 대정로 79,경상남도,창원시 성산구,남양동,35.2108512,128.7012633
배스킨라빈스,마산진동점,경남 창원시 마산합포구 진동면 진동리 415-1,경상남도,창원시 마산합포구,진동면,35.1144283,128.4859210
배스킨라빈스,창원대방점,경남 창원시 성산구 가양로124번길 23,경상남도,창원시 성산구,대방동,35.2072684,128.7076300
배스킨라빈스,진해송학점,"경남 창원시 진해구 벚꽃로 71, 1층 1호",경상남도,창원시 진해구,화천동,35.1518486,128.6635575
배스킨라빈스,진해석동점,경남 창원시 진해구 이동 462-2,경상남도,창원시 진해구,이동,35.1560503,128.6982466
배스킨라빈스,진해자은점,경남 창원시 진해구 냉천로 74,경상남도,창원시 진해구,석동,35.1523428,128.7053469
배스킨라빈스,진해장천점,경남 창원시 진해구 장천동 477-4(충장로 661),경상남도,창원시 진해구,장천동,35.1306177,128.7039884
배스킨라빈스,진해남문점,경남 창원시 진해구 남영로 48 (남문동),경상남도,창원시 진해구,남문동,35.1056101,128.7510605
배스킨라빈스,진해용원점,"경남 창원시 진해구 안골로 348 (용원동, 용원그랜드쇼핑) 1층 배스킨라빈스",경상남도,창원시 진해구,용원동,35.1020412,128.8102967
배스킨라빈스,진해신항점,"경남 창원시 진해구 신항동로 141 (용원동, 애플타운 헤리티지)",경상남도,창원시 진해구,용원동,35.0883596,128.8134893
배스킨라빈스,통영이마트점,경남 통영시 광도면 죽림4로 9 이마트 1F,경상남도,통영시,광도면,34.8871667,128.4179907
배스킨라빈스,통영죽림점,경남 통영시 광도면 죽림리 1579-3,경상남도,통영시,광도면,34.8777518,128.4185106
배스킨라빈스,통영북신점,경남 통영시 중앙로 295,경상남도,통영시,북신동,34.8565036,128.4281903
배스킨라빈스,통영봉평점,경남 통영시 도남로 95,경상남도,통영시,봉평동,34.8313459,128.4148031
배스킨라빈스,경남하동점,경남 하동군 하동읍 읍내리 224-14,경상남도,하동군,하동읍,35.0681391,127.7494782
배스킨라빈스,경남함안점,경남 함안군 가야읍 가야로 33,경상남도,함안군,가야읍,35.2774473,128.4047862
배스킨라빈스,경남함양점,경남 함양군 함양읍 고운로 58,경상남도,함양군,함양읍,35.5204106,127.7277309
배스킨라빈스,경남합천점,경남 합천군 합천읍 대야로 880-4,경상남도,합천군,합천읍,35.5668095,128.1633114
배스킨라빈스,경산무학점,경북 경산시 하양읍 양지리 264,경상북도,경산시,하양읍,35.9187352,128.8087892
배스킨라빈스,경산하양점,경북 경산시 하양읍 하양로 90,경상북도,경산시,하양읍,35.9125463,128.8179278
배스킨라빈스,경산이마트점,경북 경산시 옥산로 227 경산이마트,경상북도,경산시,중산동,35.8352147,128.7207433
배스킨라빈스,경산정평점,경북 경산시 대학로 30 (정평동),경상북도,경산시,정평동,35.8341121,128.7260504
배스킨라빈스,경산중산점,"경북 경산시 펜타힐즈2로 27 (중산동, 중산타워)",경상북도,경산시,중산동,35.8271546,128.7179627
배스킨라빈스,경산홈플러스점,경북 경산시 중방동 896 1층 배스킨라빈스 경산홈플러스점,경상북도,경산시,중방동,35.8328437,128.7356743
배스킨라빈스,경산영대점,경북 경산시 대학로 291,경상북도,경산시,대동,35.8371534,128.7537516
배스킨라빈스,경산신대점,경북 경산시 압량읍 압독3로 25 (신대리),경상북도,경산시,압량읍,35.8419170,128.7645251
배스킨라빈스,경산진량점,경북 경산시 진량읍 신상리 1225-8,경상북도,경산시,진량읍,35.8754466,128.8184686
배스킨라빈스,경산옥곡점,경북 경산시 옥곡동 815-1,경상북도,경산시,옥곡동,35.8159032,128.7308844
배스킨라빈스,경산동부점,경북 경산시 원효로 162 (사동),경상북도,경산시,사동,35.8203879,128.7543315
배스킨라빈스,경산백천점,"경북 경산시 경청로221길 9 (백천동, 대성빌딩)",경상북도,경산시,백천동,35.8043091,128.7380541
배스킨라빈스,경주안강점,경북 경주시 안강읍 안강중앙로 199 (양월리),경상북도,경주시,안강읍,35.9927766,129.2219612
배스킨라빈스,경주금장점,경북 경주시 현곡면 안현로 21 (금장리),경상북도,경주시,현곡면,35.8693299,129.2026940
배스킨라빈스,경주충효점,경북 경주시 충효5길 5 (충효동),경상북도,경주시,충효동,35.8443131,129.1788830
배스킨라빈스,경주용황점,경북 경주시 용황로 80 (용강동),경상북도,경주시,용강동,35.8831212,129.2270004
배스킨라빈스,경주황성점,경북 경주시 황성로 27,경상북도,경주시,황성동,35.8655982,129.2142580
배스킨라빈스,경주동대점,경북 경주시 동대로 10,경상북도,경주시,성건동,35.8554737,129.2059960
배스킨라빈스,경주시청점,경북 경주시 동천동 790-8,경상북도,경주시,동천동,35.8564418,129.2240474
배스킨라빈스,경주노동점,경북 경주시 원효로 99,경상북도,경주시,노동동,35.8421030,129.2118229
배스킨라빈스,경주블루원리조트점,경북 경주시 보불로 391 (천군동),경상북도,경주시,천군동,35.8227630,129.2952661
배스킨라빈스,경북고령점,경북 고령군 대가야읍 헌문리 241,경상북도,고령군,대가야읍,35.7295976,128.2695493
배스킨라빈스,구미선산점,경북 구미시 선산읍 남문로 47-2 (완전리),경상북도,구미시,선산읍,36.2419727,128.3013030
배스킨라빈스,구미봉곡점,경북 구미시 봉곡로 96,경상북도,구미시,봉곡동,36.1471566,128.3105718
배스킨라빈스,구미원호점,경북 구미시 고아읍 원호리 439-5,경상북도,구미시,고아읍,36.1511735,128.3298994
배스킨라빈스,구미문성점,경북 구미시 고아읍 들성로 237 (문성리),경상북도,구미시,고아읍,36.1608883,128.3464415
배스킨라빈스,구미도량점,경북 구미시 도봉로 80 (도량동) 103호,경상북도,구미시,도량동,36.1391366,128.3176000
배스킨라빈스,구미원평점,경북 구미시 구미중앙로 94,경상북도,구미시,원평동,36.1281661,128.3327435
배스킨라빈스,구미송정점,경북 구미시 송정동 4-5,경상북도,구미시,송정동,36.1214539,128.3408892
배스킨라빈스,구미형곡점,경북 구미시 신시로 77,경상북도,구미시,형곡동,36.1148833,128.3387097
배스킨라빈스,구미신평점,경북 구미시 신비로 14 (신평동),경상북도,구미시,신평동,36.1226808,128.3640081
배스킨라빈스,구미확장점,경북 구미시 산동면 신당2로 57 (신당리),경상북도,구미시,산동읍,36.1558385,128.4286694
배스킨라빈스,구미광평홈플러스점,경북 구미시 구미대로 174 홈플러스內 1층,경상북도,구미시,광평동,36.1027743,128.3638129
배스킨라빈스,구미옥계점,경북 구미시 옥계북로 39 삼구트리니엔,경상북도,구미시,옥계동,36.1384618,128.4218489
배스킨라빈스,구미상모점,경북 구미시 상모로 48,경상북도,구미시,상모동,36.0894535,128.3553963
배스킨라빈스,동구미이마트점,경북 구미시 이계북로 23 (임수동) 1층,경상북도,구미시,임수동,36.1063261,128.4041529
배스킨라빈스,구미인동점,경북 구미시 황상동 318-5,경상북도,구미시,황상동,36.1066307,128.4196704
배스킨라빈스,구미구평점,경북 구미시 인동36길 5,경상북도,구미시,구평동,36.0939758,128.4328667
배스킨라빈스,김천이마트점,경북 김천시 시청로 75 1층 이마트內 1층,경상북도,김천시,신음동,36.1348595,128.1170886
배스킨라빈스,김천역점,경북 김천시 김천로 131 (평화동),경상북도,김천시,평화동,36.1222975,128.1159441
배스킨라빈스,김천율곡점,경북 김천시 혁신4로 61 (율곡동),경상북도,김천시,율곡동,36.1214562,128.1883442
배스킨라빈스,김천혁신점,"경북 김천시 혁신3로 15 (율곡동, 율곡스퀘어 Ⅵ) 1층",경상북도,김천시,율곡동,36.1173178,128.1829268
배스킨라빈스,문경모전점,경북 문경시 당교로 261 (모전동),경상북도,문경시,모전동,36.5867322,128.1914188
배스킨라빈스,경북상주점,경북 상주시 무양동 291-5,경상북도,상주시,무양동,36.4186273,128.1525995
배스킨라빈스,상주시청점,경북 상주시 상산로 240 (남성동)1층,경상북도,상주시,남성동,36.4121363,128.1598367
배스킨라빈스,경북성주점,경북 성주군 성주읍 성산6길 2 (성산리),경상북도,성주군,성주읍,35.9176349,128.2880899
배스킨라빈스,안동옥동점,경북 안동시 경북대로 423,경상북도,안동시,옥동,36.5665161,128.6987700
배스킨라빈스,안동삼산점,경북 안동시 남문로 22-15,경상북도,안동시,삼산동,36.5650019,128.7307981
배스킨라빈스,안동홈플러스점,"경북 안동시 경동로 656 (운흥동, 홈플러스) 3층",경상북도,안동시,운흥동,36.5625607,128.7295823
배스킨라빈스,안동정하점,경북 안동시 정하동 282-3,경상북도,안동시,정하동,36.5505387,128.7359728
배스킨라빈스,경북영덕점,경북 영덕군 영덕읍 남석리 69-26,경상북도,영덕군,영덕읍,36.4110066,129.3685052
배스킨라빈스,영주가흥점,경북 영주시 가흥동 1728-2,경상북도,영주시,가흥동,36.8152128,128.6056668
배스킨라빈스,경북영주점,경북 영주시 번영로 154,경상북도,영주시,하망동,36.8249574,128.6250874
배스킨라빈스,영주홈플러스점,경북 영주시 휴천3동 329-1,경상북도,영주시,휴천3동,36.8082851,128.6483725
배스킨라빈스,영천동부점,경북 영천시 동부로 49,경상북도,영천시,야사동,35.9746817,128.9479504
배스킨라빈스,영천시청점,경북 영천시 문외동 12,경상북도,영천시,문외동,35.9727499,128.9367543
배스킨라빈스,경북예천점,경북 예천군 예천읍 노하리 75-17,경상북도,예천군,예천읍,36.6566076,128.4554455
배스킨라빈스,경북도청점,경북 예천군 호명면 새움3로 20 (산합리),경상북도,예천군,호명면,36.5762495,128.4890819
배스킨라빈스,경북울진점,경북 울진군 울진읍 울진중앙로 113 (읍내리),경상북도,울진군,울진읍,36.9917074,129.4009739
배스킨라빈스,경북의성점,경북 의성군 의성읍 후죽리 542-4,경상북도,의성군,의성읍,36.3519985,128.6966727
배스킨라빈스,경북청도점,경북 청도군 청도읍 청화로 129 (고수리),경상북도,청도군,청도읍,35.6455219,128.7406769
배스킨라빈스,구미북삼점,경북 칠곡군 북삼읍 금오대로 288,경상북도,칠곡군,북삼읍,36.0705470,128.3485907
배스킨라빈스,칠곡석적점,경북 칠곡군 석적읍 중리 140-1,경상북도,칠곡군,석적읍,36.0792016,128.4118537
배스킨라빈스,왜관역점,경북 칠곡군 왜관읍 중앙로 197-1 (왜관리),경상북도,칠곡군,왜관읍,35.9926434,128.3989535
배스킨라빈스,포항지곡점,경북 포항시 남구 지곡로 253 (지곡동) 에드빌3차 102동 137호,경상북도,포항시 남구,지곡동,36.0289336,129.3240324
배스킨라빈스,포항유강점,경북 포항시 남구 연일읍 유강길17번길 10,경상북도,포항시 남구,연일읍,36.0047027,129.3178599
배스킨라빈스,포항이동점,경북 포항시 남구 포스코대로 138,경상북도,포항시 남구,대잠동,36.0255491,129.3406189
배스킨라빈스,포항효자점,경북 포항시 남구 효자동 602,경상북도,포항시 남구,효자동,36.0058694,129.3409796
배스킨라빈스,포항애비뉴점,"경북 포항시 남구 중흥로 77, 1층 1016,1017,1144호 (상도동, 밸류플러스)",경상북도,포항시 남구,상도동,36.0127407,129.3489248
배스킨라빈스,포항연일점,경북 포항시 남구 연일읍 연일로 157 (생지리),경상북도,포항시 남구,연일읍,35.9970515,129.3440671
배스킨라빈스,포항이마트(임시휴점)점,"경북 포항시 남구 냉천로 10 (인덕동, 이마트포항점) 1층",경상북도,포항시 남구,인덕동,35.9924753,129.3976302
배스킨라빈스,포항문덕점,경북 포항시 남구 오천읍 원동로 22,경상북도,포항시 남구,오천읍,35.9649457,129.4032882
배스킨라빈스,포항오천점,경북 포항시 남구 오천읍 용덕리 351-89,경상북도,포항시 남구,오천읍,35.9764667,129.4118662
배스킨라빈스,,경북 포항시 북구 흥해읍 남성리 238-6,경상북도,포항시 북구,흥해읍,36.1090284,129.3463600
배스킨라빈스,포항초곡점,경북 포항시 북구 흥해읍 초곡리 1072,경상북도,포항시 북구,흥해읍,36.0966814,129.3360167
배스킨라빈스,포항법원점,경북 포항시 북구 양덕동 657-3,경상북도,포항시 북구,양덕동,36.0903196,129.3882134
배스킨라빈스,포항우현점,경북 포항시 북구 우현동 산48-1,경상북도,포항시 북구,우현동,36.0689293,129.3496552
배스킨라빈스,포항창포점,경북 포항시 북구 두호동 1096-6 1층,경상북도,포항시 북구,두호동,36.0671646,129.3731324
배스킨라빈스,포항장성점,경북 포항시 북구 새천년대로 1273 (장성동),경상북도,포항시 북구,장성동,36.0751306,129.3862405
배스킨라빈스,포항두호점,경북 포항시 북구 두호동 1052-3번지 1층,경상북도,포항시 북구,두호동,36.0597965,129.3754519
배스킨라빈스,포항양덕점,경북 포항시 북구 신덕로 191 (양덕동),경상북도,포항시 북구,양덕동,36.0861658,129.3951460
배스킨라빈스,포항대흥점,경북 포항시 북구 중앙상가길 18,경상북도,포항시 북구,대흥동,36.0368740,129.3629452
배스킨라빈스,광주첨단점,"광주 광산구 첨단중앙로181번길 42-4 상가 1호, 2호",광주광역시,광산구,월계동,35.2208937,126.8377396
배스킨라빈스,광주월계점,광주 광산구 첨단중앙로 96 110호,광주광역시,광산구,월계동,35.2138336,126.8434664
배스킨라빈스,광주신창점,광주 광산구 신창로 132 (신창동),광주광역시,광산구,신창동,35.1968040,126.8389352
배스킨라빈스,광주장덕점,광주 광산구 풍영로 271 (장덕동),광주광역시,광산구,장덕동,35.1955322,126.8153937
배스킨라빈스,flow광주수완점,광주 광산구 장신로147번길 6-2 (수완동),광주광역시,광산구,수완동,35.1909733,126.8266053
배스킨라빈스,광주수완점,광주 광산구 장신로 120,광주광역시,광산구,수완동,35.1903688,126.8232389
배스킨라빈스,광주수완롯데마트점,광주 광산구 장신로 98 3층,광주광역시,광산구,장덕동,35.1894384,126.8192876
배스킨라빈스,광주신가점,"광주 광산구 신창로 34 (신창동), 1층",광주광역시,광산구,신창동,35.1882934,126.8372830
배스킨라빈스,광주운남점,광주 광산구 운남동 773-6,광주광역시,광산구,운남동,35.1784201,126.8244859
배스킨라빈스,광주하남홈플러스점,광주 광산구 하남동 1 1층,광주광역시,광산구,하남동,35.1808563,126.8048439
배스킨라빈스,광주월곡점,광주 광산구 사암로 275 1층,광주광역시,광산구,월곡동,35.1689411,126.8087777
배스킨라빈스,광주하남점,광주 광산구 사암로216번길 30 (우산동),광주광역시,광산구,우산동,35.1632431,126.8101834
배스킨라빈스,광주소촌점,광주 광산구 소촌로 144 (소촌동) 남강빌딩 1층,광주광역시,광산구,소촌동,35.1571736,126.7923661
배스킨라빈스,광주선운점,"광주 광산구 선운중앙로 43, 211동 지하1층 B101호, B102호 (선암동, 광주 선운지구 EG the1 2단지)",광주광역시,광산구,선암동,35.1494120,126.7763214
배스킨라빈스,광주송정점,광주 광산구 광산로 32,광주광역시,광산구,송정동,35.1387659,126.7951847
배스킨라빈스,광주돌고개역점,광주 남구 월산로 147-4 (월산동),광주광역시,남구,월산동,35.1509047,126.8957386
배스킨라빈스,광주백운점,"광주 남구 제중로 136 (서동, 오베로)",광주광역시,남구,서동,35.1430653,126.9068672
배스킨라빈스,광주방림점,광주 남구 방림동 346-1,광주광역시,남구,방림동,35.1348915,126.9173787
배스킨라빈스,광주주월점,"광주 남구 대남대로223번길 10 (주월동, 양우 내안애 프레스티지) 111동",광주광역시,남구,주월동,35.1337342,126.8982951
배스킨라빈스,광주봉선점,광주 남구 봉선로 164,광주광역시,남구,봉선동,35.1227757,126.9130959
배스킨라빈스,광주진월점,광주 남구 서문대로 648 1층,광주광역시,남구,진월동,35.1171665,126.8987024
배스킨라빈스,광주노대점,광주 남구 노대동 851,광주광역시,남구,노대동,35.1058595,126.9046042
배스킨라빈스,광주효천점,광주 남구 임암동 879,광주광역시,남구,임암동,35.1018083,126.8733638
배스킨라빈스,광주두암점,광주 동구 산수동 681,광주광역시,동구,산수동,35.1615299,126.9357919
배스킨라빈스,광주계림센트럴점,광주 동구 경양로 237 (계림동),광주광역시,동구,계림동,35.1576406,126.9168638
배스킨라빈스,광주계림두산위브점,광주 동구 동계로 61 (계림동),광주광역시,동구,계림동,35.1571200,126.9234410
배스킨라빈스,조선대점,광주 동구 필문대로 271,광주광역시,동구,동명동,35.1470407,126.9280386
배스킨라빈스,광주충장점,광주 동구 서석로 51 (금남로1가),광주광역시,동구,금남로1가,35.1472379,126.9186852
배스킨라빈스,광주황금점,"광주 동구 황금동 102, 1층",광주광역시,동구,황금동,35.1472317,126.9147613
배스킨라빈스,광주학동점,광주 동구 남문로 664,광주광역시,동구,학동,35.1300986,126.9298386
배스킨라빈스,광주양산점,광주 북구 하서로 403,광주광역시,북구,양산동,35.2110543,126.8738793
배스킨라빈스,광주신용점,광주 북구 첨단연신로133번길 4 (신용동),광주광역시,북구,신용동,35.2102447,126.8637855
배스킨라빈스,광주일곡점,광주 북구 설죽로 514,광주광역시,북구,일곡동,35.2049903,126.8981033
배스킨라빈스,광주연제점,광주 북구 양산동 660-16,광주광역시,북구,양산동,35.1980513,126.8725492
배스킨라빈스,광주삼각점,광주 북구 설죽로370번길 24 (오치동),광주광역시,북구,오치동,35.1932178,126.9011299
배스킨라빈스,광주매곡점,광주 북구 서하로 131 (매곡동),광주광역시,북구,매곡동,35.1875976,126.8949199
배스킨라빈스,광주문흥점,"광주 북구 문산로 43-2 (문흥동, 라인아파트상가동 12호)",광주광역시,북구,문흥동,35.1860947,126.9231149
배스킨라빈스,광주동림푸른마을점,광주 북구 북문대로 241 (동림동),광주광역시,북구,동림동,35.1867422,126.8656141
배스킨라빈스,동광주홈플러스점,광주 북구 동문대로 200 홈플러스점 1층,광주광역시,북구,두암동,35.1793379,126.9304109
배스킨라빈스,광주용봉점,광주 북구 용봉택지로 94 (용봉동),광주광역시,북구,용봉동,35.1781689,126.8966716
배스킨라빈스,광주운암점,광주 북구 북문대로 89 벽산블루밍 상가,광주광역시,북구,운암동,35.1780044,126.8768312
배스킨라빈스,전남대점,광주 북구 우치로 94-1 (용봉동),광주광역시,북구,용봉동,35.1758996,126.9127116
배스킨라빈스,광주말바우점,광주 북구 동문대로 96 (두암동),광주광역시,북구,두암동,35.1719247,126.9244378
배스킨라빈스,광주동림점,광주 서구 하남대로 680번길 1,광주광역시,서구,동천동,35.1714797,126.8672147
배스킨라빈스,광주터미널점,"광주 서구 무진대로 904 (광천동, 유스퀘어(광천터미널)), 1층 22호",광주광역시,서구,광천동,35.1606026,126.8798482
배스킨라빈스,광주이마트점,광주 서구 화정동 12-13 이마트 광주점 1층,광주광역시,서구,화정동,35.1588150,126.8819998
배스킨라빈스,광주쌍촌점,광주 서구 상무민주로 101,광주광역시,서구,쌍촌동,35.1595875,126.8591646
배스킨라빈스,광주상무점,광주 서구 치평로 60,광주광역시,서구,치평동,35.1526169,126.8477068
배스킨라빈스,광주운천점,광주 서구 쌍촌동 981-19,광주광역시,서구,쌍촌동,35.1499629,126.8578369
배스킨라빈스,광주염주점,광주 서구 월드컵4강로 93-1,광주광역시,서구,화정동,35.1451517,126.8730063
배스킨라빈스,광주화정점,"광주 서구 화운로 24 (화정동, 유니버시아드 힐스테이트 3단지)",광주광역시,서구,화정동,35.1436248,126.8850534
배스킨라빈스,광주금호점,광주 서구 금화로 93,광주광역시,서구,금호동,35.1327086,126.8588989
배스킨라빈스,광주풍암점,광주 서구 풍암중앙로 55,광주광역시,서구,풍암동,35.1256240,126.8801662
배스킨라빈스,광주마재점,광주 서구 회재로 887 (금호동),광주광역시,서구,금호동,35.1224401,126.8611498
배스킨라빈스,대구계명네거리점,대구 남구 대명동 2130-10,대구광역시,남구,대명동,35.8561444,128.5826239
배스킨라빈스,대구안지랑역점,대구 남구 대명로 165,대구광역시,남구,대명동,35.8393300,128.5758225
배스킨라빈스,대구영대병원점,대구 남구 중앙대로 151 (대명동),대구광역시,남구,대명동,35.8468608,128.5901827
배스킨라빈스,대구봉덕점,"대구 남구 대덕로 161 (봉덕동, 봉덕2차 화성파크드림)",대구광역시,남구,봉덕동,35.8411064,128.6008213
배스킨라빈스,대구강창역점,대구 달서구 호산로 137 (파호동),대구광역시,달서구,파호동,35.8522022,128.4777983
배스킨라빈스,대구신당점,대구 달서구 계대동문로 26,대구광역시,달서구,신당동,35.8553244,128.4951051
배스킨라빈스,대구성서이곡점,대구 달서구 계대동문로 123,대구광역시,달서구,이곡동,35.8567832,128.5059488
배스킨라빈스,대구성서성산점,대구 달서구 성지로 102 (용산동),대구광역시,달서구,용산동,35.8584138,128.5213708
배스킨라빈스,대구용산점,대구 달서구 용산로 218,대구광역시,달서구,용산동,35.8569661,128.5308499
배스킨라빈스,대구성서홈플러스점,대구 달서구 용산동 231-11,대구광역시,달서구,용산동,35.8495379,128.5275013
배스킨라빈스,대구본리점,대구 달서구 와룡로 124,대구광역시,달서구,감삼동,35.8437471,128.5375032
배스킨라빈스,대구성당래미안점,대구 달서구 본리동 145-2,대구광역시,달서구,본리동,35.8404137,128.5441878
배스킨라빈스,대구월성네거리점,"대구 달서구 조암로 6 (월성동), 1층",대구광역시,달서구,월성동,35.8261207,128.5289902
배스킨라빈스,대구대천점,대구 달서구 대천동 441-1,대구광역시,달서구,대천동,35.8177353,128.5176109
배스킨라빈스,대구서부점,"대구 달서구 구마로 264 (송현동), 1층",대구광역시,달서구,송현동,35.8372469,128.5567631
배스킨라빈스,대구월배이마트점,대구 달서구 대천동 555,대구광역시,달서구,대천동,35.8171551,128.5237522
배스킨라빈스,대구월성점,대구 달서구 상원로 128 (상인동),대구광역시,달서구,상인동,35.8198523,128.5307699
배스킨라빈스,대구상인홈플러스점,"대구 달서구 월배로 183 (상인동, 상인 대성 스카이렉스) 105동",대구광역시,달서구,상인동,35.8183886,128.5333320
배스킨라빈스,,대구 달서구 월배로 183,대구광역시,달서구,상인동,35.8183886,128.5333320
배스킨라빈스,대구월촌점,대구 달서구 송현동 1914-5 1층,대구광역시,달서구,송현동,35.8245901,128.5458973
배스킨라빈스,대구상인점,"대구 달서구 상인서로 85 (상인동, 상인동방현대아파트) 106동 105호",대구광역시,달서구,상인동,35.8173401,128.5402903
배스킨라빈스,대구대곡점,대구광역시 달서구 도원동 1436-2,대구광역시,달서구,도원동,35.8071668,128.5360637
배스킨라빈스,대구대곡2지구점,"대구 달서구 대곡동 1080  102호, 103호",대구광역시,달서구,대곡동,35.8017276,128.5318401
배스킨라빈스,대구세천점,대구 달성군 다사읍 세천리 1588,대구광역시,달성군,다사읍,35.8737189,128.4788062
배스킨라빈스,대구죽곡점,"대구 달성군 다사읍 달구벌대로 881(103호, 104호)",대구광역시,달성군,다사읍,35.8577981,128.4657687
배스킨라빈스,대구서재점,대구 달성군 다사읍 서재로 117 (서재리),대구광역시,달성군,다사읍,35.8738427,128.4971019
배스킨라빈스,대구옥포점,대구 달성군 옥포읍 돌미상업로 5 (교항리),대구광역시,달성군,옥포읍,35.7814604,128.4420194
배스킨라빈스,대구화원역점,대구 달성군 화원읍 비슬로 2599 (천내리),대구광역시,달성군,화원읍,35.8047803,128.5007697
배스킨라빈스,대구대곡역점,대구 달성군 화원읍 구라리 1735-4,대구광역시,달성군,화원읍,35.8093067,128.5114721
배스킨라빈스,대구현풍점,"대구 달성군 현풍읍 부리 489, 1층 107호",대구광역시,달성군,현풍읍,35.6963566,128.4435221
배스킨라빈스,대구테크노폴리스점,대구 달성군 유가읍 테크노상업로 100 (봉리),대구광역시,달성군,유가읍,35.6932523,128.4605050
배스킨라빈스,대구구지점,대구 달성군 구지면 응암리 1205-1,대구광역시,달성군,구지면,35.6559973,128.4180748
배스킨라빈스,대구이시아폴리스점,대구 동구 봉무동 1539-8,대구광역시,동구,봉무동,35.9220521,128.6397775
배스킨라빈스,대구대현점,대구 동구 신암로 94-1 (신암동),대구광역시,동구,신암동,35.8791432,128.6104545
배스킨라빈스,대구신암점,대구 동구 아양로 49,대구광역시,동구,신암동,35.8823969,128.6193189
배스킨라빈스,대구아양교역점,"대구 동구 아양로 246-1 (효목동) 80-11, 1층",대구광역시,동구,효목동,35.8869153,128.6400096
배스킨라빈스,동대구역사점,"대구 동구 동대구로 550 (신암동, 동대구역)",대구광역시,동구,신암동,35.8794362,128.6287756
배스킨라빈스,대구신세계점,대구 동구 동부로 149 신세계백화점 9층,대구광역시,동구,신천동,35.8777043,128.6291671
배스킨라빈스,동대구터미널점,대구 동구 동부로30길 3-2 (신천동),대구광역시,동구,신천동,35.8766476,128.6291082
배스킨라빈스,대구방촌점,대구 동구 동촌로 235,대구광역시,동구,방촌동,35.8813965,128.6661293
배스킨라빈스,대구신서혁신점,대구 동구 각산동 1080번지 101호,대구광역시,동구,각산동,35.8785014,128.7144982
배스킨라빈스,대구율하점,대구 동구 안심로22길 16 (율하동) 1층,대구광역시,동구,율하동,35.8656678,128.6961452
배스킨라빈스,대구반야월이마트점,"대구 동구 안심로 389-2 (신서동, 이마트 반야월점)",대구광역시,동구,신서동,35.8707740,128.7274213
배스킨라빈스,대구각산역점,대구 동구 동호동 375-4,대구광역시,동구,동호동,35.8661126,128.7244428
배스킨라빈스,대구숙천점,대구 동구 대림동 888-3,대구광역시,동구,대림동,35.8741904,128.7488679
배스킨라빈스,대구칠곡홈플러스점,대구 북구 동암로12길 8 칠곡홈플러스 1층,대구광역시,북구,동천동,35.9449028,128.5558670
배스킨라빈스,대구칠곡점,"대구 북구 학정로 439,109호(동천동,칠곡메가타운)",대구광역시,북구,동천동,35.9438760,128.5633492
배스킨라빈스,flow대구칠곡점,대구 북구 구암동 769-3,대구광역시,북구,구암동,35.9417854,128.5638287
배스킨라빈스,대구보건대점,대구 북구 태전로 57 (태전동) 1층,대구광역시,북구,태전동,35.9252807,128.5432551
배스킨라빈스,대구동천점,대구 북구 구암로 143,대구광역시,북구,동천동,35.9320297,128.5565392
배스킨라빈스,대구금호점,대구 북구 한강로 46 (사수동),대구광역시,북구,사수동,35.8969727,128.5148387
배스킨라빈스,칠곡매천점,대구 북구 매전로 80,대구광역시,북구,태전동,35.9128522,128.5468571
배스킨라빈스,대구연경점,대구 북구 동화천로 245 (연경동),대구광역시,북구,연경동,35.9426492,128.6179077
배스킨라빈스,대구동서변점,"대구 북구 호국로 219 (서변동, 대성골든프라자1차)",대구광역시,북구,서변동,35.9213059,128.5988481
배스킨라빈스,대구침산점,대구 북구 침산로 153 2차 푸르지오상가 1층 c-5호,대구광역시,북구,침산동,35.8893078,128.5900885
배스킨라빈스,대구산격점,대구 북구 동북로 163,대구광역시,북구,산격동,35.9007956,128.6114256
배스킨라빈스,대구경대북문점,대구 북구 산격동 1341-2,대구광역시,북구,산격동,35.8928251,128.6091818
배스킨라빈스,대구복현점,"대구 북구 복현로 71 (복현동, 복현블루밍상가) 1층 101호",대구광역시,북구,복현동,35.8975833,128.6234183
배스킨라빈스,대구칠성점,대구 북구 칠성동2가 371-2 1층,대구광역시,북구,칠성동2가,35.8798735,128.5963790
배스킨라빈스,,대구 북구 중앙대로 526 (칠성동2가) 1층,대구광역시,북구,칠성동2가,35.8797955,128.5963227
배스킨라빈스,대구팔달시장역점,대구 서구 비산동 1043 1층 103호,대구광역시,서구,비산동,35.8884978,128.5678563
배스킨라빈스,대구평리점,대구 서구 서대구로 112 (평리동),대구광역시,서구,평리동,35.8678902,128.5556238
배스킨라빈스,대구평리롯데캐슬점,"대구 서구 국채보상로 316 (평리동, 평리롯데캐슬)",대구광역시,서구,평리동,35.8708173,128.5655069
배스킨라빈스,대구두류점,"대구 서구 달구벌대로 1691, 109호 (내당동)",대구광역시,서구,내당동,35.8557204,128.5507114
배스킨라빈스,내당홈플러스점,대구 서구 달구벌대로 1821 (내당동),대구광역시,서구,내당동,35.8605123,128.5636983
배스킨라빈스,대구수성4가점,대구 수성구 수성로 424 (수성동4가) 1층,대구광역시,수성구,수성동4가,35.8639002,128.6144306
배스킨라빈스,대구청구성조점,대구 수성구 범어동 2017,대구광역시,수성구,범어동,35.8666380,128.6230380
배스킨라빈스,대구만촌이마트점,대구 수성구 동원로 136 이마트 만촌점 1층,대구광역시,수성구,만촌동,35.8711951,128.6372544
배스킨라빈스,대구범어네거리점,대구 수성구 달구벌대로 2378 (범어동) 1층,대구광역시,수성구,범어동,35.8590445,128.6227095
배스킨라빈스,대구수성점,대구 수성구 명덕로 428 (수성동2가),대구광역시,수성구,수성동2가,35.8540046,128.6167619
배스킨라빈스,대구범어점,"대구 수성구 달구벌대로 2482 (범어동, 진&진 빌딩)",대구광역시,수성구,범어동,35.8583898,128.6339527
배스킨라빈스,대구만촌네거리점,대구 수성구 달구벌대로 2594 (만촌동),대구광역시,수성구,만촌동,35.8584576,128.6463802
배스킨라빈스,대구상동점,대구 수성구 상동 282-2,대구광역시,수성구,상동,35.8338344,128.6112049
배스킨라빈스,대구황금점,대구 수성구 청수로 180,대구광역시,수성구,지산동,35.8387928,128.6277662
배스킨라빈스,대구지산점,대구 수성구 지산동 1193-4,대구광역시,수성구,지산동,35.8216796,128.6301077
배스킨라빈스,대구범물점,대구 수성구 범물동 1334-1 103호,대구광역시,수성구,범물동,35.8206624,128.6397695
배스킨라빈스,대구용지역점,대구 수성구 지범로 253 (범물동) 1층,대구광역시,수성구,범물동,35.8172444,128.6453182
배스킨라빈스,대구알파시티점,대구 수성구 시지동 578 수성 중앙빌딩,대구광역시,수성구,시지동,35.8407742,128.6922796
배스킨라빈스,대구신매점,대구 수성구 달구벌대로 3202 (신매동) 1층,대구광역시,수성구,신매동,35.8400636,128.7066242
배스킨라빈스,대구시지매호점,"대구 수성구 달구벌대로645길 11 (신매동, 신매동SNL메디타워) 112호, 113호",대구광역시,수성구,신매동,35.8402304,128.7097815
배스킨라빈스,대구남산점,"대구 중구 달구벌대로 1950 (남산동, 남산그린타운)",대구광역시,중구,남산동,35.8626341,128.5771179
배스킨라빈스,대구동성로점,대구 중구 동성로 33,대구광역시,중구,동성로2가,35.8697784,128.5954597
배스킨라빈스,대구동아쇼핑점,대구 중구 달구벌대로 2085,대구광역시,중구,덕산동,35.8663086,128.5918299
배스킨라빈스,대구삼덕점,대구 중구 공평로 45,대구광역시,중구,삼덕동1가,35.8680739,128.5996269
배스킨라빈스,신탄진점,대전 대덕구 신탄진로 816,대전광역시,대덕구,신탄진동,36.4502804,127.4293056
배스킨라빈스,대전중리점,대전 대덕구 중리로 71 (중리동),대전광역시,대덕구,중리동,36.3654884,127.4249182
배스킨라빈스,대전송촌점,대전 대덕구 송촌동 464-2,대전광역시,대덕구,송촌동,36.3649999,127.4396415
배스킨라빈스,대전한남대점,대전 대덕구 한남로 19,대전광역시,대덕구,오정동,36.3510087,127.4259925
배스킨라빈스,대전비래점,대전 대덕구 비래동 126-6,대전광역시,대덕구,비래동,36.3550125,127.4492762
배스킨라빈스,대전터미널서관점,대전 동구 동서대로 1689 대전터미널서관 1층,대전광역시,동구,용전동,36.3503767,127.4366973
배스킨라빈스,대전대동역점,대전 동구 계족로 167,대전광역시,동구,대동,36.3287773,127.4429913
배스킨라빈스,대전용운점,대전 동구 새울로 107 (용운동) 1층,대전광역시,동구,용운동,36.3279541,127.4615702
배스킨라빈스,대전판암점,대전 동구 판암동 466,대전광역시,동구,판암동,36.3166915,127.4559636
배스킨라빈스,대전가오점,대전 동구 가오동 646 가오동 GO빌딩 1층 106호,대전광역시,동구,가오동,36.3063553,127.4563599
배스킨라빈스,대전산내점,대전 동구 산내로 1329 (낭월동),대전광역시,동구,낭월동,36.2819833,127.4669818
배스킨라빈스,대전월평점,대전 서구 청사서로 40 1층 배스킨라빈스,대전광역시,서구,월평동,36.3613048,127.3769275
배스킨라빈스,대전월평트레이더스점,대전 서구 월평동 510,대전광역시,서구,월평동,36.3576802,127.3629735
배스킨라빈스,대전둔산이마트점,대전 서구 둔산동 959-2 대전둔산이마트 內 1층,대전광역시,서구,둔산동,36.3563503,127.3781844
배스킨라빈스,대전둔산햇님점,"대전 서구 둔산북로 175 (둔산동, 햇님아파트) 햇님상가 1층",대전광역시,서구,둔산동,36.3563704,127.3924599
배스킨라빈스,대전갈마점,"대전 서구 신갈마로 186 (갈마동, 갤러리휴리움)",대전광역시,서구,갈마동,36.3506611,127.3687225
배스킨라빈스,대전둔산점,"대전 서구 둔산로 20,104(둔산동)",대전광역시,서구,둔산동,36.3518848,127.3762063
배스킨라빈스,대전충남고점,대전 서구 문정로 166,대전광역시,서구,둔산동,36.3491943,127.3955003
배스킨라빈스,대전탄방점,"대전 서구 문정로 96(탄반동,101호)",대전광역시,서구,탄방동,36.3464479,127.3899070
배스킨라빈스,대전목원대점,대전 서구 도안북로93번길 7,대전광역시,서구,도안동,36.3303953,127.3385943
배스킨라빈스,대전용문점,"대전 서구 계룡로 634-1 (용문동), 1층",대전광역시,서구,용문동,36.3387046,127.3922414
배스킨라빈스,대전가장점,대전 서구 갈마로 262 벽산맑은아침APT상가 502동 107호,대전광역시,서구,내동,36.3317196,127.3824462
배스킨라빈스,대전수목토점,"대전 서구 원도안로179번길 7-17, 1층 일부호(도안동)",대전광역시,서구,도안동,36.3188971,127.3442194
배스킨라빈스,대전배재대점,대전 서구 배재로 162,대전광역시,서구,도마동,36.3228287,127.3704538
배스킨라빈스,대전도마점,대전 서구 도마동 174-4,대전광역시,서구,도마동,36.3126591,127.3803542
배스킨라빈스,대전가수원점,대전 서구 가수원동 1061번지 1층,대전광역시,서구,가수원동,36.3055334,127.3526952
배스킨라빈스,대전관저점,대전 서구 관저동 1109 신선타워 101호,대전광역시,서구,관저동,36.3008107,127.3344246
배스킨라빈스,대전관저더샵점,대전 서구 관저동 1992-1,대전광역시,서구,관저동,36.2962168,127.3265610
배스킨라빈스,대전마치광장점,대전 서구 구봉로 129 (관저동),대전광역시,서구,관저동,36.2967065,127.3372543
배스킨라빈스,대전복수점,대전광역시 서구 복수동로 64          ,대전광역시,서구,복수동,36.2986090,127.3783121
배스킨라빈스,대전송강점,대전 유성구 구즉로 70-1 (송강동),대전광역시,유성구,송강동,36.4350856,127.3860608
배스킨라빈스,대전관평점,대전 유성구 테크노4로 137,대전광역시,유성구,관평동,36.4224870,127.3879154
배스킨라빈스,대전반석점,대전 유성구 반석로 23,대전광역시,유성구,반석동,36.3913013,127.3121865
배스킨라빈스,대전지족점,"대전 유성구 지족동 986-2 105, 105-1, 106-1호",대전광역시,유성구,지족동,36.3866421,127.3178688
배스킨라빈스,대전EXPO점,대전 유성구 엑스포로 448 엑스포중앙상가 104호,대전광역시,유성구,전민동,36.4024759,127.4068197
배스킨라빈스,대전신성점,대전 유성구 신성남로 45,대전광역시,유성구,신성동,36.3866065,127.3500264
배스킨라빈스,대전노은점,대전 유성구 노은로 170,대전광역시,유성구,지족동,36.3748234,127.3184208
배스킨라빈스,대전죽동점,"대전 유성구 유성대로 871 죽동 1층 101(일부),102,103호",대전광역시,유성구,죽동,36.3694764,127.3394716
배스킨라빈스,대전충남대점,대전 유성구 대학로151번길 27,대전광역시,유성구,궁동,36.3619514,127.3499916
배스킨라빈스,대전유성점,대전 유성구 봉명동 469-46 유성자이 104호,대전광역시,유성구,봉명동,36.3557556,127.3371358
배스킨라빈스,대전유성홈플러스점,대전 유성구 한밭대로 502 유성홈플러스내 1층,대전광역시,유성구,봉명동,36.3584081,127.3541755
배스킨라빈스,대전학하점,대전 유성구 덕명동 601-11,대전광역시,유성구,덕명동,36.3466842,127.3011466
배스킨라빈스,대전도안점,대전 유성구 도안대로 512-12,대전광역시,유성구,봉명동,36.3456555,127.3408727
배스킨라빈스,대전아이파크시티점,"대전 유성구 상대복용로29번길 52 (상대동, 대전아이파크시티 1단지)",대전광역시,유성구,상대동,36.3371981,127.3302797
배스킨라빈스,대전중촌점,"대전 중구 목중로 12-1 (중촌동), 1층",대전광역시,중구,중촌동,36.3355464,127.4123077
배스킨라빈스,대전은행점,대전 중구 중앙로164번길 18 (은행동) 1층,대전광역시,중구,은행동,36.3285495,127.4279005
배스킨라빈스,대전태평점,대전 중구 유천동 326-15,대전광역시,중구,유천동,36.3190537,127.3924841
배스킨라빈스,대전문화홈플러스점,대전 중구 계백로 1690 문화홈플러스점 1층,대전광역시,중구,문화동,36.3202652,127.4076841
배스킨라빈스,대전산성점,대전 중구 대둔산로 397 (산성동) 1층 103호,대전광역시,중구,산성동,36.3049250,127.3860255
배스킨라빈스,대전부사점,대전 중구 대종로 302 (문창동) 1층,대전광역시,중구,문창동,36.3130862,127.4355210
배스킨라빈스,부산지사점,부산 강서구 지사동 1186,부산광역시,강서구,지사동,35.1500310,128.8383651
배스킨라빈스,부산신호점,부산 강서구 신호산단4로 46 (신호동),부산광역시,강서구,신호동,35.0854577,128.8779896
배스킨라빈스,부산명지더샵점,부산 강서구 명지동 3594 판매시설동 103호,부산광역시,강서구,명지동,35.0982048,128.9063153
배스킨라빈스,부산명지휴포레점,부산 강서구 명지국제11로 27 (명지동),부산광역시,강서구,명지동,35.1048190,128.9214980
배스킨라빈스,부산국제신도시점,부산 강서구 명지동 3357-7,부산광역시,강서구,명지동,35.0984079,128.9198352
배스킨라빈스,부산남산점,부산 금정구 남산동 105-9 (중앙대로 2035),부산광역시,금정구,남산동,35.2661365,129.0922049
배스킨라빈스,금정이마트점,"부산 금정구 중앙대로1841번길 24 (구서동, (주)이마트금정점)",부산광역시,금정구,구서동,35.2499563,129.0906011
배스킨라빈스,부산구서역점,부산 금정구 구서로 5 (구서동),부산광역시,금정구,구서동,35.2465037,129.0902845
배스킨라빈스,부산장전역점,부산 금정구 부곡동 225-58,부산광역시,금정구,부곡동,35.2372893,129.0894422
배스킨라빈스,부산대점,부산 금정구 장전동 420-21,부산광역시,금정구,장전동,35.2312651,129.0853960
배스킨라빈스,부산대역점,부산 금정구 금정로60번길 37 (장전동),부산광역시,금정구,장전동,35.2295564,129.0883067
배스킨라빈스,부산정관,부산광역시 기장군 정관읍 정관2로 9 이지 더원 2차 아파트          ,부산광역시,기장군,정관읍,35.3340688,129.1635625
배스킨라빈스,부산정관홈플러스점,부산 기장군 정관읍 정관5로 50 홈플러스 1층,부산광역시,기장군,정관읍,35.3230710,129.1763507
배스킨라빈스,부산정관구연점,부산 기장군 정관읍 매학리 749-6,부산광역시,기장군,정관읍,35.3200367,129.1809103
배스킨라빈스,부산일광점,부산 기장군 일광면 삼성리 825,부산광역시,기장군,일광읍,35.2662973,129.2259213
배스킨라빈스,부산기장점,부산 기장군 기장읍 차성동로 63 (대라리) 1층,부산광역시,기장군,기장읍,35.2434227,129.2162786
배스킨라빈스,부산문현이마트점,부산 남구 문현동 751 E마트,부산광역시,남구,문현동,35.1443206,129.0642618
배스킨라빈스,부산문현점,"부산 남구 수영로 36(문현동,1층)",부산광역시,남구,문현동,35.1364935,129.0715941
배스킨라빈스,부산대연점,부산 남구 진남로 3,부산광역시,남구,대연동,35.1353500,129.0917123
배스킨라빈스,경성대점,"부산 남구 용소로 9 (대연동, 대학칼라)",부산광역시,남구,대연동,35.1365560,129.1006774
배스킨라빈스,부산메트로시티점,부산 남구 분포로 113 1005동 117호 1F,부산광역시,남구,용호동,35.1297860,129.1095710
배스킨라빈스,부산용호점,부산 남구 용호동 395-3,부산광역시,남구,용호동,35.1193995,129.1118089
배스킨라빈스,부산범일점,부산 동구 범일동 830-269,부산광역시,동구,범일동,35.1388582,129.0616293
배스킨라빈스,부산진역점,부산 동구 진성로 4 (수정동),부산광역시,동구,수정동,35.1295919,129.0488849
배스킨라빈스,부산역광장점,부산 동구 중앙대로 213-1 (초량동),부산광역시,동구,초량동,35.1163502,129.0399978
배스킨라빈스,부산온천장점,부산 동래구 온천장로 114 (온천동),부산광역시,동래구,온천동,35.2205935,129.0847937
배스킨라빈스,부산동래점,부산 동래구 중앙대로1381번길 37 (온천동),부산광역시,동래구,온천동,35.2109334,129.0758851
배스킨라빈스,부산명륜아이파크점,"부산 동래구 시실로 22, 1층 (명륜동)",부산광역시,동래구,명륜동,35.2167419,129.0861750
배스킨라빈스,부산미남점,부산 동래구 아시아드대로 221 (온천동),부산광역시,동래구,온천동,35.2038667,129.0666166
배스킨라빈스,부산사직점,부산 동래구 사직동 93-8,부산광역시,동래구,사직동,35.1967847,129.0622917
배스킨라빈스,부산동래역점,부산 동래구 명륜로 129번길 2,부산광역시,동래구,명륜동,35.2055871,129.0819751
배스킨라빈스,부산명장점,부산 동래구 명안로85번길 52,부산광역시,동래구,명장동,35.2048379,129.1017827
배스킨라빈스,부산안락점,부산 동래구 안락동 633-4,부산광역시,동래구,안락동,35.1937055,129.0989682
배스킨라빈스,부산안락SK점,부산 동래구 안락동 469-3,부산광역시,동래구,안락동,35.1988531,129.1119371
배스킨라빈스,부산대공원점,부산 부산진구 초읍동 171-16,부산광역시,부산진구,초읍동,35.1822178,129.0474880
배스킨라빈스,부산당감점,부산 부산진구 당감동 421-1,부산광역시,부산진구,당감동,35.1655818,129.0388401
배스킨라빈스,부산개금역점,"부산 부산진구 가야대로 450 (개금동, 개금역금강펜테리움더스퀘어아파트)",부산광역시,부산진구,개금동,35.1525104,129.0209135
배스킨라빈스,부산부암롯데마트점,부산 부산진구 신천대로 241 4층,부산광역시,부산진구,부암동,35.1633085,129.0493226
배스킨라빈스,부산가야점,부산 부산진구 가야대로 589 (가야동),부산광역시,부산진구,가야동,35.1549865,129.0362000
배스킨라빈스,서면트레이더스점,"부산 부산진구 시민공원로 31 (부암동, 이마트트레이더스서면점)",부산광역시,부산진구,부암동,35.1638954,129.0525896
배스킨라빈스,부산양정점,부산 부산진구 중앙대로 907 (양정동),부산광역시,부산진구,양정동,35.1713977,129.0696485
배스킨라빈스,부산부전점,부산 부산진구 동성로 149-2,부산광역시,부산진구,전포동,35.1613019,129.0627932
배스킨라빈스,부산서면일번가점,부산 부산진구 신천대로62번길 77 (부전동),부산광역시,부산진구,부전동,35.1541987,129.0582645
배스킨라빈스,부산서면중앙점,부산 부산진구 부전동 195-3 1층,부산광역시,부산진구,부전동,35.1539404,129.0594832
배스킨라빈스,부산전포역점,부산 부산진구 전포동 340-11,부산광역시,부산진구,전포동,35.1544087,129.0662491
배스킨라빈스,부산금곡점,부산 북구 금곡동 1880-6,부산광역시,북구,금곡동,35.2477203,129.0126107
배스킨라빈스,부산화명점,부산 북구 화명신도시로 127,부산광역시,북구,화명동,35.2353428,129.0106119
배스킨라빈스,부산화명2호점,"부산 북구 금곡대로285번길 5 (화명동, 레지던스라움)",부산광역시,북구,화명동,35.2336922,129.0131863
배스킨라빈스,부산화명강변점,부산 북구 화명동 2315-2 (학사로 3),부산광역시,북구,화명동,35.2236981,129.0086064
배스킨라빈스,부산구포점,부산 북구 백양대로 1192,부산광역시,북구,구포동,35.2087724,129.0055058
배스킨라빈스,부산덕천점,부산 북구 만덕대로16번길 17 (덕천동),부산광역시,북구,덕천동,35.2097437,129.0073246
배스킨라빈스,부산구남역점,"부산 북구 백양대로 1057 (구포동, 미래)",부산광역시,북구,구포동,35.1997902,128.9968035
배스킨라빈스,부산만덕점,부산 북구 덕천로 237,부산광역시,북구,만덕동,35.2108287,129.0301539
배스킨라빈스,부산만덕역점,부산 북구 만덕동 823-33,부산광역시,북구,만덕동,35.2135336,129.0367678
배스킨라빈스,부산모라점,부산 사상구 모라동 1367,부산광역시,사상구,모라동,35.1871636,128.9905195
배스킨라빈스,사상이마트점,부산 사상구 괘법동 531-2 이마트 2층 배스킨라빈스,부산광역시,사상구,괘법동,35.1641815,128.9788814
배스킨라빈스,부산사상점,부산 사상구 사상로 208 (괘법동),부산광역시,사상구,괘법동,35.1636264,128.9841798
배스킨라빈스,부산백양대로점,부산 사상구 백양대로 502 (주례동),부산광역시,사상구,주례동,35.1542702,128.9974990
배스킨라빈스,부산학장점,"부산 사상구 대동로 103 (학장동, 홍익빌딩)",부산광역시,사상구,학장동,35.1388220,128.9788870
배스킨라빈스,부산주례점,부산 사상구 가야대로 362,부산광역시,사상구,주례동,35.1510162,129.0121552
배스킨라빈스,부산동대승학점,부산 사하구 낙동대로550번길 1 (하단동),부산광역시,사하구,하단동,35.1132022,128.9642795
배스킨라빈스,부산동아대점,부산 사하구 낙동대로 518,부산광역시,사하구,하단동,35.1105469,128.9660558
배스킨라빈스,부산하단점,부산 사하구 낙동남로 1388,부산광역시,사하구,하단동,35.1058718,128.9634824
배스킨라빈스,부산당리점,부산 사하구 낙동대로 410,부산광역시,사하구,당리동,35.1038979,128.9735644
배스킨라빈스,부산괴정점,부산 사하구 사하로 184,부산광역시,사하구,괴정동,35.0981361,128.9941408
배스킨라빈스,부산장림시장점,부산 사하구 장림동 332-2,부산광역시,사하구,장림동,35.0804075,128.9697391
배스킨라빈스,부산감천점,부산 사하구 감천동 661-1,부산광역시,사하구,감천동,35.0906372,128.9975171
배스킨라빈스,부산다대포점,부산 사하구 다대동 1432-6,부산광역시,사하구,다대동,35.0642253,128.9797717
배스킨라빈스,부산다대포2점,부산 사하구 다대로 704-1,부산광역시,사하구,다대동,35.0488540,128.9647979
배스킨라빈스,부산동대신점,부산 서구 구덕로 330 (동대신동3가),부산광역시,서구,동대신동3가,35.1132183,129.0162876
배스킨라빈스,부산부민RE~0302점,"부산 서구 구덕로 216 (부민동1가, 명보빌딩)",부산광역시,서구,부민동1가,35.1039228,129.0202737
배스킨라빈스,부산송도점,부산 서구 암남동 535-2,부산광역시,서구,암남동,35.0754859,129.0161826
배스킨라빈스,부산수영점,"부산 수영구 수영로 704 (광안동, 하진빌딩)",부산광역시,수영구,광안동,35.1675536,129.1164449
배스킨라빈스,부산광안역점,부산 수영구 광안동 741-12,부산광역시,수영구,광안동,35.1578805,129.1127981
배스킨라빈스,부산광안리점,부산 수영구 민락동 179-13,부산광역시,수영구,민락동,35.1545623,129.1195032
배스킨라빈스,부산민락점,부산 수영구 민락동 135,부산광역시,수영구,민락동,35.1573080,129.1275326
배스킨라빈스,부산남천점,부산 수영구 수영로 400 (남천동) 1층,부산광역시,수영구,남천동,35.1418093,129.1072814
배스킨라빈스,부산아시아드홈플러스점,부산 연제구 종합운동장로 7,부산광역시,연제구,거제동,35.1912669,129.0620200
배스킨라빈스,부산거제리점,부산 연제구 아시아드대로 96,부산광역시,연제구,거제동,35.1933034,129.0673409
배스킨라빈스,부산교대점,부산 연제구 명륜로2번길 7,부산광역시,연제구,거제동,35.1952609,129.0812825
배스킨라빈스,부산연산점,부산 연제구 연산동 723-17,부산광역시,연제구,연산동,35.1872192,129.0828453
배스킨라빈스,부산시청점,부산 연제구 시청로 26-1 (연산동) 1층,부산광역시,연제구,연산동,35.1816085,129.0743901
배스킨라빈스,부산연산파크시티점,"부산 연제구 과정로 320 (연산동, 월드파크4)",부산광역시,연제구,연산동,35.1895288,129.0929780
배스킨라빈스,부산연제이마트점,부산 연제구 연수로 89,부산광역시,연제구,연산동,35.1761180,129.0813506
배스킨라빈스,부산연산힐스테이트점,부산 연제구 연산동 1875-8,부산광역시,연제구,연산동,35.1737387,129.0887208
배스킨라빈스,부산토곡점,부산 연제구 과정로 116 (연산동),부산광역시,연제구,연산동,35.1816825,129.1073328
배스킨라빈스,부산영도점,부산 영도구 태종로 88 (대교동2가),부산광역시,영도구,대교동2가,35.0917239,129.0404564
배스킨라빈스,부산동삼점,부산 영도구 동삼동 1170 일동미라주브라이튼 108동 115호,부산광역시,영도구,동삼동,35.0822257,129.0702122
배스킨라빈스,부산부평점,부산 중구 비프광장로 21 (부평동1가),부산광역시,중구,부평동1가,35.0988197,129.0275108
배스킨라빈스,부산광복점,부산 중구 광복로 40,부산광역시,중구,창선동2가,35.0992146,129.0293642
배스킨라빈스,부산반송점,부산 해운대구 아랫반송로 17 (반송동),부산광역시,해운대구,반송동,35.2255377,129.1481461
배스킨라빈스,부산반여점,부산 해운대구 선수촌로 101-1,부산광역시,해운대구,반여동,35.2028792,129.1192844
배스킨라빈스,부산재송점,부산 해운대구 재송동 1130-1 1층 102호(재반로118),부산광역시,해운대구,재송동,35.1888997,129.1269151
배스킨라빈스,부산센텀파크점,"부산 해운대구 센텀중앙로 145 (재송동, 더샵센텀파크1차아파트)",부산광역시,해운대구,재송동,35.1788329,129.1219424
배스킨라빈스,센텀홈플러스점,"부산 해운대구 센텀동로 6, 1층 (우동, 홈플러스 센텀시티점)",부산광역시,해운대구,우동,35.1709266,129.1336852
배스킨라빈스,해운대마린시티점,"부산 해운대구 마린시티2로 2 (우동, 마린파크)",부산광역시,해운대구,우동,35.1593400,129.1442096
배스킨라빈스,해운대양운점,부산 해운대구 좌동 1270-6,부산광역시,해운대구,좌동,35.1725237,129.1673507
배스킨라빈스,해운대우동홈플러스점,부산 해운대구 해운대해변로 140 홈플러스 1층,부산광역시,해운대구,우동,35.1583975,129.1464925
배스킨라빈스,해운대좌동점,부산 해운대구 좌동로 104,부산광역시,해운대구,좌동,35.1727143,129.1763372
배스킨라빈스,부산해운대점,부산 해운대구 구남로 30,부산광역시,해운대구,우동,35.1614145,129.1603829
배스킨라빈스,해운대중동역점,부산 해운대구 중동 1766-1 1층 102호,부산광역시,해운대구,중동,35.1664206,129.1689551
배스킨라빈스,부산장산역점,부산 해운대구 해운대로 802 웅신 시네아트,부산광역시,해운대구,좌동,35.1691635,129.1766569
배스킨라빈스,flow부산장산역점,"부산 해운대구 세실로 48 (좌동, 해운대삼정코아주상복합)",부산광역시,해운대구,좌동,35.1695609,129.1785420
배스킨라빈스,SPC스퀘어점,서울 강남구 역삼동 831-23 2층,서울특별시,강남구,역삼동,37.4943781,127.0298699
배스킨라빈스,강남대로점,서울 강남구 강남대로 442 (역삼동),서울특별시,강남구,역삼동,37.5020662,127.0260775
배스킨라빈스,flow도곡점,서울 강남구 도곡동 902-2 지상 1층 102호,서울특별시,강남구,도곡동,37.4864358,127.0381655
배스킨라빈스,선릉점,서울 강남구 역삼동 696-5 함지빌딩1층,서울특별시,강남구,역삼동,37.5054157,127.0473039
배스킨라빈스,대치점,서울 강남구 선릉로 402,서울특별시,강남구,대치동,37.5008073,127.0510334
배스킨라빈스,대치2호점,서울 강남구 선릉로64길 5,서울특별시,강남구,대치동,37.4978680,127.0526490
배스킨라빈스,삼성플래티넘점,서울 강남구 봉은사로 474,서울특별시,강남구,삼성동,37.5123688,127.0519533
배스킨라빈스,포이동점,서울 강남구 개포동 1238-7,서울특별시,강남구,개포동,37.4784380,127.0464390
배스킨라빈스,BROWN청담점,서울 강남구 도산대로 327 (신사동) SGF 청담타워 3층,서울특별시,강남구,신사동,37.5231450,127.0376251
배스킨라빈스,은마사거리점,서울 강남구 도곡로 504 (대치동),서울특별시,강남구,대치동,37.4988090,127.0616340
배스킨라빈스,파르나스몰점,"서울 강남구 테헤란로 521, 지하1층 R-21,22호 (삼성동, 파르나스타워)",서울특별시,강남구,삼성동,37.5095450,127.0608688
배스킨라빈스,압구정역점,서울 강남구 압구정로 206 (신사동),서울특별시,강남구,신사동,37.5273699,127.0295754
배스킨라빈스,개포점,서울 강남구 개포동 186-16,서울특별시,강남구,개포동,37.4892460,127.0683586
배스킨라빈스,flow압구정현대점,"서울 강남구 압구정로29길 71 (압구정동, 현대아파트) 상가3동 114호",서울특별시,강남구,압구정동,37.5331502,127.0275030
배스킨라빈스,일원점,"서울 강남구 개포로110길 43 (일원동, 개포한신아파트)",서울특별시,강남구,일원동,37.4913090,127.0791988
배스킨라빈스,강남수서점,"서울 강남구 수서동 595-18, 108호",서울특별시,강남구,수서동,37.4839369,127.0943066
배스킨라빈스,수서역점,서울 강남구 수서동 724 로즈데일빌딩 지하2층 128,서울특별시,강남구,수서동,37.4873276,127.1031442
배스킨라빈스,강남세곡점,서울 강남구 자곡동 383,서울특별시,강남구,자곡동,37.4754752,127.1049820
배스킨라빈스,강남은곡마을점,서울 강남구 헌릉로569길 3 (세곡동),서울특별시,강남구,세곡동,37.4668057,127.1013275
배스킨라빈스,천호역,서울특별시 강동구 천호대로 997 지하1층 엔터식스쇼핑몰          ,서울특별시,강동구,천호동,37.5393392,127.1233017
배스킨라빈스,천호로데오점,서울 강동구 천호대로157길 11 (천호동),서울특별시,강동구,천호동,37.5384149,127.1268051
배스킨라빈스,둔촌역점,서울특별시 강동구 양재대로 1349,서울특별시,강동구,성내동,37.5267275,127.1353772
배스킨라빈스,강동역점,서울 강동구 천호대로 1092,서울특별시,강동구,성내동,37.5352302,127.1326141
배스킨라빈스,암사역점,"서울 강동구 올림픽로 797 (암사동) 1층 105,106호",서울특별시,강동구,암사동,37.5524013,127.1280562
배스킨라빈스,길동역점,서울 강동구 양재대로 1471 (길동),서울특별시,강동구,길동,37.5373655,127.1392909
배스킨라빈스,둔촌푸르지오점,서울 강동구 천호대로 1200,서울특별시,강동구,둔촌동,37.5345731,127.1446662
배스킨라빈스,굽은다리역점,서울 강동구 상암로 183,서울특별시,강동구,천호동,37.5464477,127.1426681
배스킨라빈스,명일역점,서울 강동구 양재대로 1638 (명일동),서울특별시,강동구,명일동,37.5517613,127.1443440
배스킨라빈스,고덕점,"서울 강동구 동남로73길 17 (명일동, 우진빌딩) 1층",서울특별시,강동구,명일동,37.5527488,127.1550917
배스킨라빈스,고덕래미안힐스점,"서울 강동구 동남로81길 100 (고덕동, 청강빌딩) 1층",서울특별시,강동구,고덕동,37.5589851,127.1517265
배스킨라빈스,명일이마트점,서울 강동구 고덕로 276 4층,서울특별시,강동구,명일동,37.5547101,127.1556015
배스킨라빈스,고덕그라시움점,서울 강동구 고덕동 212 고덕그라시움아파트 상가4동 1층,서울특별시,강동구,고덕동,37.5578047,127.1670496
배스킨라빈스,상일동점,서울 강동구 상일동 255,서울특별시,강동구,상일동,37.5505786,127.1726288
배스킨라빈스,강일동점,서울 강동구 아리수로 427 106호,서울특별시,강동구,강일동,37.5649683,127.1746155
배스킨라빈스,미아삼거리점,서울 강북구 도봉로 8길 5,서울특별시,강북구,미아동,37.6126871,127.0306668
배스킨라빈스,삼양점,서울 강북구 솔샘로 225,서울특별시,강북구,미아동,37.6201561,127.0177752
배스킨라빈스,삼양시장점,"서울 강북구 삼양로 235 (미아동, 백운메디컬빌딩)",서울특별시,강북구,미아동,37.6243561,127.0182753
배스킨라빈스,미아역점,서울 강북구 미아동 304-1,서울특별시,강북구,미아동,37.6260512,127.0259751
배스킨라빈스,수유역점,서울 강북구 도봉로 328,서울특별시,강북구,번동,37.6371282,127.0252103
배스킨라빈스,강북구청점,서울 강북구 한천로 1044 (수유동),서울특별시,강북구,수유동,37.6405446,127.0264272
배스킨라빈스,수유벽산점,서울특별시 강북구 삼양로 421,서울특별시,강북구,수유동,37.6410824,127.0166197
배스킨라빈스,덕성여대점,서울 강북구 우이동 71-31,서울특별시,강북구,우이동,37.6516602,127.0124527
배스킨라빈스,염창점,서울 강서구 양천로 711,서울특별시,강서구,염창동,37.5498831,126.8749768
배스킨라빈스,목동사거리점,서울 강서구 등촌로 49-2 (화곡동),서울특별시,강서구,화곡동,37.5345487,126.8633235
배스킨라빈스,증미역점,서울 강서구 양천로 605 (염창동),서울특별시,강서구,염창동,37.5554378,126.8656404
배스킨라빈스,flow화곡점,"서울 강서구 곰달래로 147 (화곡동, 바울빌딩) 1층",서울특별시,강서구,화곡동,37.5308369,126.8492415
배스킨라빈스,까치산역점,서울 강서구 강서로 42 (화곡동),서울특별시,강서구,화곡동,37.5316581,126.8470455
배스킨라빈스,강서홈플러스점,"서울 강서구 등촌동 639-11, 1층 배스킨라빈스",서울특별시,강서구,등촌동,37.5584162,126.8550466
배스킨라빈스,강서구청점,"서울 강서구 화곡로 296 (화곡동, 강서아이파크) 1층",서울특별시,강서구,화곡동,37.5505813,126.8490472
배스킨라빈스,화곡대림점,서울 강서구 화곡동 362-86,서울특별시,강서구,화곡동,37.5340021,126.8385614
배스킨라빈스,,서울 강서구 양천로 431 홈플러스 가양점 1층,서울특별시,강서구,가양동,37.5642641,126.8499602
배스킨라빈스,가양홈플러스점,"서울 강서구 양천로 431 (가양동, 홈플러스가양점) 1층",서울특별시,강서구,가양동,37.5642641,126.8499602
배스킨라빈스,화곡역점,"서울 강서구 화곡로 149 (화곡동, 심당빌딩)",서울특별시,강서구,화곡동,37.5412913,126.8381781
배스킨라빈스,우장산역점,"서울 강서구 강서로 259 (내발산동, 우장산역엠버리움빌딩)",서울특별시,강서구,내발산동,37.5488837,126.8359840
배스킨라빈스,발산역점,서울 강서구 강서로 380 (등촌동),서울특별시,강서구,등촌동,37.5594830,126.8388752
배스킨라빈스,양천향교역점,서울 강서구 마곡동 776-4,서울특별시,강서구,마곡동,37.5676078,126.8406286
배스킨라빈스,내발산점,"서울 강서구 수명로 80 (내발산동, 베스트프라자빌딩)",서울특별시,강서구,내발산동,37.5532397,126.8263894
배스킨라빈스,신방화역점,서울 강서구 마곡중앙5로 81 SB타운 116호,서울특별시,강서구,마곡동,37.5671210,126.8185936
배스킨라빈스,송정역점,서울 강서구 공항대로 34,서울특별시,강서구,공항동,37.5610119,126.8109723
배스킨라빈스,방화역점,"서울 강서구 금낭화로 146 (방화동, 오피앙)",서울특별시,강서구,방화동,37.5781439,126.8132960
배스킨라빈스,개화산역점,서울 강서구 양천로 31 (방화동) 푸른빌딩 1층,서울특별시,강서구,방화동,37.5729279,126.8073515
배스킨라빈스,사당역점,서울 관악구 과천대로 949,서울특별시,관악구,남현동,37.4753453,126.9813293
배스킨라빈스,낙성대역점,서울 관악구 남부순환로 1917 (봉천동),서울특별시,관악구,봉천동,37.4778515,126.9623723
배스킨라빈스,서울대입구역점,"서울 관악구 봉천로 475 (봉천동, 1층)",서울특별시,관악구,봉천동,37.4823792,126.9530513
배스킨라빈스,관악구청점,서울 관악구 관악로 161,서울특별시,관악구,봉천동,37.4796183,126.9522017
배스킨라빈스,봉천현대점,서울 관악구 은천로 113 (봉천동),서울특별시,관악구,봉천동,37.4869595,126.9479390
배스킨라빈스,봉천역점,서울 관악구 남부순환로 1726 (봉천동),서울특별시,관악구,봉천동,37.4820884,126.9418102
배스킨라빈스,관악은천점,"서울 관악구 은천로 27 (봉천동, 정암빌딩)",서울특별시,관악구,봉천동,37.4863999,126.9385803
배스킨라빈스,신림남부점,서울 관악구 신림동 1515-2,서울특별시,관악구,신림동,37.4706628,126.9364838
배스킨라빈스,신림타임스트림점,서울 관악구 신림로 330 PODO Mall 9층,서울특별시,관악구,신림동,37.4838598,126.9302425
배스킨라빈스,신림점,서울 관악구 신림로 311 (신림동),서울특별시,관악구,신림동,37.4821517,126.9296820
배스킨라빈스,보라매타운점,서울 관악구 봉천로 223-1,서울특별시,관악구,봉천동,37.4900101,126.9266734
배스킨라빈스,난곡점,서울 관악구 난곡로 213,서울특별시,관악구,신림동,37.4736732,126.9178327
배스킨라빈스,신대방역점,서울 관악구 신림동 519-5,서울특별시,관악구,신림동,37.4853793,126.9136567
배스킨라빈스,관악난향점,"서울 관악구 난곡로 98 (신림동, 파로스프라자B동) 1층",서울특별시,관악구,신림동,37.4640692,126.9194795
배스킨라빈스,자양점,서울 광진구 뚝섬로 552,서울특별시,광진구,자양동,37.5342962,127.0712962
배스킨라빈스,건대스타시티점,서울 광진구 아차산로 262,서울특별시,광진구,자양동,37.5375105,127.0725939
배스킨라빈스,건대동문회관점,"서울 광진구 아차산로 288 (자양동, 대흥빌딩)",서울특별시,광진구,자양동,37.5383778,127.0749197
배스킨라빈스,건대역점,서울 광진구 능동로 115,서울특별시,광진구,화양동,37.5413443,127.0710347
배스킨라빈스,구의역점,서울 광진구 아차산로 375,서울특별시,광진구,구의동,37.5370792,127.0843905
배스킨라빈스,화양삼거리점,"서울 광진구 광나루로 361 (군자동, 광진 동양파라곤 2단지)",서울특별시,광진구,군자동,37.5485406,127.0700151
배스킨라빈스,구의사거리점,서울 광진구 광나루로 527 (구의동) 1층,서울특별시,광진구,구의동,37.5451527,127.0882867
배스킨라빈스,광장현대점,서울 광진구 아차산로 494 (광장동),서울특별시,광진구,광장동,37.5411562,127.0966983
배스킨라빈스,군자역점,서울 광진구 천호대로 546,서울특별시,광진구,군자동,37.5571617,127.0786755
배스킨라빈스,아차산역점,서울 광진구 천호대로 659,서울특별시,광진구,구의동,37.5523098,127.0899427
배스킨라빈스,광나루역점,서울 광진구 아차산로 608 (광장동) 1층,서울특별시,광진구,광장동,37.5469920,127.1065313
배스킨라빈스,중곡역점,서울 광진구 능동로 415,서울특별시,광진구,중곡동,37.5661769,127.0841646
배스킨라빈스,구로디지털단지역점,서울 구로구 구로동 1123-1,서울특별시,구로구,구로동,37.4844505,126.9022140
배스킨라빈스,구로이마트점,"서울 구로구 디지털로32길 43 (구로동, 이마트구로점)",서울특별시,구로구,구로동,37.4844087,126.8979273
배스킨라빈스,남구로점,"서울 구로구 도림로 75 (구로동, 한진빌딩)",서울특별시,구로구,구로동,37.4899932,126.8917418
배스킨라빈스,신도림테크노마트점,서울 구로구 새말로 97 10층,서울특별시,구로구,구로동,37.5070143,126.8902633
배스킨라빈스,구로구청점,"서울 구로구 구로중앙로 68 (구로동, 신안타워)",서울특별시,구로구,구로동,37.4958015,126.8887946
배스킨라빈스,신도림홈플러스점,서울 구로구 경인로 661 지하1층,서울특별시,구로구,신도림동,37.5095178,126.8877039
배스킨라빈스,신도림점,서울 구로구 신도림동 436-7 큐븨스테이트 오피스텔 상가 1층,서울특별시,구로구,신도림동,37.5064442,126.8837795
배스킨라빈스,구로NC점,서울 구로구 구로동 573 구로NC백화점 지하 1층,서울특별시,구로구,구로동,37.5011880,126.8828440
배스킨라빈스,구로고척점,서울 구로구 고척동 52-200,서울특별시,구로구,고척동,37.5004039,126.8669122
배스킨라빈스,고척아이파크점,"서울 구로구 중앙로5길 59 (고척동, 고척아이파크)",서울특별시,구로구,고척동,37.5008534,126.8594648
배스킨라빈스,개봉역사점,서울 구로구 개봉동 415,서울특별시,구로구,개봉동,37.4951278,126.8561291
배스킨라빈스,개봉중앙점,"서울 구로구 개봉로 59 (개봉동) 동남상가 115, 116호",서울특별시,구로구,개봉동,37.4909979,126.8557106
배스킨라빈스,개봉푸르지오점,"서울 구로구 남부순환로 775 (개봉동, 개봉푸르지오) 106동 106호",서울특별시,구로구,개봉동,37.5007938,126.8479386
배스킨라빈스,구로오류점,서울 구로구 경인로 197,서울특별시,구로구,오류동,37.4958957,126.8429552
배스킨라빈스,구로천왕역점,"서울 구로구 오리로 1141 (천왕동, 네이처힐)",서울특별시,구로구,천왕동,37.4859827,126.8388679
배스킨라빈스,구로항동점,"서울 구로구 서해안로 2096, 1층 105호, 106호 (항동)",서울특별시,구로구,항동,37.4797634,126.8228911
배스킨라빈스,구로전화국사거리점,서울 금천구 남부순환로 1386 (독산동),서울특별시,금천구,독산동,37.4797409,126.9047440
배스킨라빈스,금천은행나무점,서울 금천구 시흥동 271-35,서울특별시,금천구,시흥동,37.4504457,126.9104220
배스킨라빈스,금천독산점,서울 금천구 독산로 205 (독산동),서울특별시,금천구,독산동,37.4651536,126.9021912
배스킨라빈스,금천홈플러스점,"서울 금천구 시흥대로 391 (독산동, 삼성홈플러스)",서울특별시,금천구,독산동,37.4686639,126.8968853
배스킨라빈스,금천가산점,서울 금천구 가산동 153-1,서울특별시,금천구,가산동,37.4756154,126.8929130
배스킨라빈스,시흥사거리점,서울 금천구 시흥대로 229,서울특별시,금천구,시흥동,37.4541266,126.9003849
배스킨라빈스,금천롯데캐슬점,서울 금천구 독산동 1156,서울특별시,금천구,독산동,37.4611081,126.8968008
배스킨라빈스,시흥홈플러스점,"서울 금천구 시흥동 992-47, 홈플러스 시흥점 지하 1층",서울특별시,금천구,시흥동,37.4519108,126.9008033
배스킨라빈스,가산W-MALL점,서울 금천구 가산동 60-27 W-MALL 지하 1층,서울특별시,금천구,가산동,37.4773431,126.8877003
배스킨라빈스,석수역점,서울 금천구 시흥동 979-4,서울특별시,금천구,시흥동,37.4346319,126.9035007
배스킨라빈스,석계점,서울 노원구 석계로1길 10,서울특별시,노원구,월계동,37.6156349,127.0641245
배스킨라빈스,광운대역점,서울 노원구 광운로 65,서울특별시,노원구,월계동,37.6231744,127.0600067
배스킨라빈스,화랑대역점,"서울 노원구 노원로1길 67 (공릉동, 대덕프라자) 1층",서울특별시,노원구,공릉동,37.6208327,127.0836582
배스킨라빈스,월계이마트점,서울 노원구 마들로 3길 15 월계 이마트 2층,서울특별시,노원구,월계동,37.6269007,127.0613340
배스킨라빈스,공릉점,서울 노원구 공릉로 198,서울특별시,노원구,공릉동,37.6274353,127.0786102
배스킨라빈스,중계브라운스톤점,"서울 노원구 동일로203가길 29 (중계동, 브라운스톤중계)",서울특별시,노원구,중계동,37.6399301,127.0642714
배스킨라빈스,중계롯데마트점,서울 노원구 중계동 361 롯데마트중계점 지하1층,서울특별시,노원구,중계동,37.6465510,127.0711156
배스킨라빈스,상계백병원점,서울 노원구 상계동 763-7,서울특별시,노원구,상계동,37.6484858,127.0619745
배스킨라빈스,중계은행점,"서울 노원구 한글비석로 245 (중계동, 두타빌)  111, 112호",서울특별시,노원구,중계동,37.6495368,127.0763798
배스킨라빈스,노원역점,"서울 노원구 노해로 492 (상계동, 프린스빌딩) 1층 104호",서울특별시,노원구,상계동,37.6544635,127.0626968
배스킨라빈스,노원로데오점,"서울 노원구 상계로 65 (상계동, 현성빌딩) 1층",서울특별시,노원구,상계동,37.6563604,127.0622597
배스킨라빈스,상계역점,서울 노원구 한글비석로 384,서울특별시,노원구,중계동,37.6599272,127.0734393
배스킨라빈스,마들역점,서울 노원구 동일로 1541,서울특별시,노원구,상계동,37.6656560,127.0570860
배스킨라빈스,당고개점,서울 노원구 덕릉로118길 7 (상계동),서울특별시,노원구,상계동,37.6675700,127.0793131
배스킨라빈스,수락산역점,서울 노원구 동일로 1670,서울특별시,노원구,상계동,37.6773688,127.0556200
배스킨라빈스,신창점,서울 도봉구 창3동 552-48,서울특별시,도봉구,창3동,37.6376382,127.0374490
배스킨라빈스,쌍문역점,"서울 도봉구 창동 655-20 홍일빌딩(104,104-1호)",서울특별시,도봉구,창동,37.6473274,127.0344309
배스킨라빈스,창동역2점,서울 도봉구 노해로65길 17,서울특별시,도봉구,창동,37.6520638,127.0461130
배스킨라빈스,창동역1점,서울 도봉구 마들로11길 65 유진빌딩 107호,서울특별시,도봉구,창동,37.6534225,127.0496878
배스킨라빈스,쌍문점,서울 도봉구 도당로 6,서울특별시,도봉구,쌍문동,37.6587139,127.0353644
배스킨라빈스,방학사거리점,서울 도봉구 방학동 703-65,서울특별시,도봉구,방학동,37.6647447,127.0423690
배스킨라빈스,방학점,"서울 도봉구 도봉로150길 43 (방학동, ESA 아파트)",서울특별시,도봉구,방학동,37.6664777,127.0455905
배스킨라빈스,도봉점,서울 도봉구 도봉로 885 (도봉동),서울특별시,도봉구,도봉동,37.6834330,127.0457186
배스킨라빈스,장한평역점,서울 동대문구 장한로 27 (장안동),서울특별시,동대문구,장안동,37.5639667,127.0659352
배스킨라빈스,동대문홈플러스점,서울 동대문구 용두동 33-1 홈플러스 동대문점 1층,서울특별시,동대문구,용두동,37.5745215,127.0388250
배스킨라빈스,전농동아점,서울 동대문구 서울시립대로 50 (전농동),서울특별시,동대문구,전농동,37.5756430,127.0476407
배스킨라빈스,전농점,서울 동대문구 사가정로 148 101호,서울특별시,동대문구,전농동,37.5769111,127.0605491
배스킨라빈스,경희대점,서울 동대문구 경희대로4길 2,서울특별시,동대문구,회기동,37.5924949,127.0526811
배스킨라빈스,외대점,서울 동대문구 휘경로 21,서울특별시,동대문구,이문동,37.5956693,127.0624063
배스킨라빈스,이수역점,"서울 동작구 동작대로 27길 15, 101호",서울특별시,동작구,사당동,37.4874583,126.9810464
배스킨라빈스,남성역점,서울 동작구 사당로 236,서울특별시,동작구,사당동,37.4831712,126.9738228
배스킨라빈스,흑석DT점,서울 동작구 흑석동 9-46,서울특별시,동작구,흑석동,37.5080161,126.9652791
배스킨라빈스,중앙대점,서울 동작구 흑석동 190-41,서울특별시,동작구,흑석동,37.5073790,126.9593708
배스킨라빈스,숭실대점,서울 동작구 상도로 364-1,서울특별시,동작구,상도동,37.4960820,126.9534408
배스킨라빈스,상도역점,서울 동작구 양녕로 277 (상도1동),서울특별시,동작구,상도1동,37.5042618,126.9492936
배스킨라빈스,노량진점,서울 동작구 만양로 105,서울특별시,동작구,노량진동,37.5128503,126.9440175
배스킨라빈스,장승배기역점,"서울시 동작구 상도로 207 (상도동, 상도효성해링턴플레이스), B209호",서울특별시,동작구,상도동,37.5059150,126.9421277
배스킨라빈스,신대방삼거리역점,서울 동작구 상도로 69,서울특별시,동작구,대방동,37.4999695,126.9283927
배스킨라빈스,대방역점,"서울 동작구 알마타길 6 (대방동, 파밀리에 하늘마루)",서울특별시,동작구,대방동,37.5105906,126.9251787
배스킨라빈스,보라매공원점,서울 동작구 신대방동 498-9,서울특별시,동작구,신대방동,37.4967375,126.9163695
배스킨라빈스,대림삼거리점,서울 동작구 신대방동 588-7,서울특별시,동작구,신대방동,37.4908516,126.9084829
배스킨라빈스,마포도화점,서울 마포구 삼개로 10-1,서울특별시,마포구,도화동,37.5394602,126.9473892
배스킨라빈스,마포용강점,서울 마포구 용강동 220번지 1층,서울특별시,마포구,용강동,37.5420872,126.9441022
배스킨라빈스,아현뉴타운점,"서울 마포구 마포대로 195 (아현동, 마포 래미안 푸르지오)",서울특별시,마포구,아현동,37.5529598,126.9529188
배스킨라빈스,서강신수점,서울 마포구 신수동 31-1 숨도빌딩 1층,서울특별시,마포구,신수동,37.5490981,126.9397909
배스킨라빈스,광흥창역점,"서울 마포구 독막로 145 (창전동, 서강쌍용예가) 1층",서울특별시,마포구,창전동,37.5484412,126.9295552
배스킨라빈스,홍대상상마당점,서울 마포구 어울마당로 61 (서교동),서울특별시,마포구,서교동,37.5505073,126.9209984
배스킨라빈스,합정역점,서울 마포구 합정동 414-19,서울특별시,마포구,합정동,37.5489837,126.9146325
배스킨라빈스,망원역점,서울 마포구 월드컵로 105,서울특별시,마포구,망원동,37.5577340,126.9079276
배스킨라빈스,마포구청역점,서울 마포구 월드컵로 150,서울특별시,마포구,성산동,37.5613763,126.9056259
배스킨라빈스,마포성산점,서울 마포구 월드컵북로 189 (성산동),서울특별시,마포구,성산동,37.5680319,126.9075021
배스킨라빈스,상암DMC점,"서울 마포구 월드컵북로 381 (상암동, 상암 월드컵파크 4단지)",서울특별시,마포구,상암동,37.5779529,126.8898876
배스킨라빈스,아현역점,"서울 서대문구 신촌로35길 10 (북아현동, 이편한세상신촌)",서울특별시,서대문구,북아현동,37.5586219,126.9558605
배스킨라빈스,이대역점,서울 서대문구 대현동 40-21,서울특별시,서대문구,대현동,37.5569774,126.9452811
배스킨라빈스,독립문점,서울 서대문구 통일로 199 (영천동),서울특별시,서대문구,영천동,37.5709692,126.9612083
배스킨라빈스,CAFE31신촌점,"서울 서대문구 명물길 38 (창천동, 용성경정비)",서울특별시,서대문구,창천동,37.5583599,126.9387624
배스킨라빈스,연희사러가점점,"서울 서대문구 연희맛로 23 (연희동, 사러가쇼핑)",서울특별시,서대문구,연희동,37.5670966,126.9296080
배스킨라빈스,홍제삼거리점,서울 서대문구 통일로 420 1층(홍제동),서울특별시,서대문구,홍제동,37.5869758,126.9465397
배스킨라빈스,홍은동점,"서울 서대문구 연희로 276 (홍은동, 동욱빌딩 101호)",서울특별시,서대문구,홍은동,37.5816894,126.9366064
배스킨라빈스,가좌역점,"서울 서대문구 가재울미래로 2 (남가좌동, DMC파크뷰자이) 상가 404동 107",서울특별시,서대문구,남가좌동,37.5728378,126.9176131
배스킨라빈스,남가좌점,서울 서대문구 거북골로 57 (남가좌동),서울특별시,서대문구,남가좌동,37.5781189,126.9221024
배스킨라빈스,북한산두산위브점,"서울 서대문구 홍은중앙로3길 9 (홍은동, 북한산 두산 위브) 1층 109호",서울특별시,서대문구,홍은동,37.5982220,126.9452041
배스킨라빈스,북가좌점,서울 서대문구 응암로 53,서울특별시,서대문구,북가좌동,37.5782070,126.9097977
배스킨라빈스,강남신논현점,서울 서초구 강남대로69길 8 (서초동),서울특별시,서초구,서초동,37.5018539,127.0246411
배스킨라빈스,CAFE31서초우성점,서울 서초구 서초동 1337-34 1층,서울특별시,서초구,서초동,37.4927442,127.0296612
배스킨라빈스,교대역점,"서울 서초구 서초대로 331 (서초동, 정우빌딩) 1층",서울특별시,서초구,서초동,37.4951577,127.0176552
배스킨라빈스,반포삼호가든점,서울 서초구 고무래로8길 2,서울특별시,서초구,반포동,37.5027805,127.0105427
배스킨라빈스,양재역사,서울특별시 서초구 남부순환로 2585          ,서울특별시,서초구,서초동,37.4839347,127.0345442
배스킨라빈스,양재사옥점,서울 서초구 남부순환로 2620 지하1층,서울특별시,서초구,양재동,37.4844508,127.0373535
배스킨라빈스,반포역점,서울 서초구 잠원동 58-24,서울특별시,서초구,잠원동,37.5096183,127.0133039
배스킨라빈스,남부터미널역점,"서울 서초구 반포대로10길 35 (서초동, 서초지웰)",서울특별시,서초구,서초동,37.4841398,127.0137417
배스킨라빈스,고속터미널경부선점,서울 서초구 반포동 19-4 강남고속버스터미널 경부선 1층,서울특별시,서초구,반포동,37.5055152,127.0070872
배스킨라빈스,반포서래마을점,"서울 서초구 서래로 39 (반포동,1층)",서울특별시,서초구,반포동,37.4985517,126.9982326
배스킨라빈스,서초점,서울 서초구 방배3동 1001-31,서울특별시,서초구,방배3동,37.4824756,127.0043354
배스킨라빈스,방배역점,서울 서초구 방배로 100 (방배동),서울특별시,서초구,방배동,37.4832758,126.9967812
배스킨라빈스,내방점,서울 서초구 방배로 200 (방배동),서울특별시,서초구,방배동,37.4913222,126.9916831
배스킨라빈스,양재매헌점,서울 서초구 동산로 18,서울특별시,서초구,양재동,37.4695902,127.0416966
배스킨라빈스,서초우면점,"서울 서초구 태봉로 70, 107-1호",서울특별시,서초구,우면동,37.4645488,127.0255942
배스킨라빈스,사당방배점,"서울 서초구 동작대로 44 (방배동, 은혜빌딩)",서울특별시,서초구,방배동,37.4804056,126.9822305
배스킨라빈스,옥수역점,"서울 성동구 한림말1길 10 (옥수동, 예건네스빌) 101호",서울특별시,성동구,옥수동,37.5421982,127.0166187
배스킨라빈스,성수이마트점,서울 성동구 뚝섬로 379,서울특별시,성동구,성수동2가,37.5399360,127.0534928
배스킨라빈스,성동금호점,서울 성동구 금호동4가 144-1(독서당로 314),서울특별시,성동구,금호동4가,37.5479961,127.0239649
배스킨라빈스,서울숲점,"서울 성동구 왕십리로 114 (성수동1가, 신한빌딩)",서울특별시,성동구,성수동1가,37.5476785,127.0447512
배스킨라빈스,성수역점,서울 성동구 아차산로7길 4,서울특별시,성동구,성수동2가,37.5455846,127.0543956
배스킨라빈스,행당점,서울 성동구 행당동 317-112,서울특별시,성동구,행당동,37.5579480,127.0301646
배스킨라빈스,한양대점,서울 성동구 마조로 25,서울특별시,성동구,행당동,37.5600682,127.0409426
배스킨라빈스,왕십리역사점,서울 성동구 왕십리광장로 17 (행당동),서울특별시,성동구,행당동,37.5614086,127.0384812
배스킨라빈스,,서울 성동구 홍익동 550 센트라스 상가 L동 B19호,서울특별시,성동구,홍익동,37.5650368,127.0297214
배스킨라빈스,왕십리센트라스점,"서울 성동구 왕십리로 410 (하왕십리동, 센트라스) B동 119",서울특별시,성동구,하왕십리동,37.5665508,127.0247865
배스킨라빈스,답십리역점,서울 성동구 용답중앙15길 16,서울특별시,성동구,용답동,37.5646986,127.0541646
배스킨라빈스,고대안암,서울특별시 성북구 고려대로24길 25          ,서울특별시,성북구,안암동5가,37.5850452,127.0295515
배스킨라빈스,보문역점,서울 성북구 보문동2가 134,서울특별시,성북구,보문동2가,37.5850477,127.0193072
배스킨라빈스,한성대입구역점,서울 성북구 동소문로 3 (동소문동1가),서울특별시,성북구,동소문동1가,37.5888530,127.0065156
배스킨라빈스,성신여대점,서울 성북구 동소문로20가길 28,서울특별시,성북구,동선동1가,37.5927678,127.0179160
배스킨라빈스,성북아리랑점,서울 성북구 동선동5가 147-9,서울특별시,성북구,동선동5가,37.5967888,127.0154220
배스킨라빈스,성북종암점,서울 성북구 종암동 86-4,서울특별시,성북구,종암동,37.5998153,127.0338589
배스킨라빈스,월곡홈플러스점,서울 성북구 화랑로 76,서울특별시,성북구,하월곡동,37.6018543,127.0405332
배스킨라빈스,월곡역점,서울 성북구 화랑로11길 5,서울특별시,성북구,하월곡동,37.6025909,127.0413546
배스킨라빈스,길음점,서울 성북구 길음동 1276,서울특별시,성북구,길음동,37.6027842,127.0237961
배스킨라빈스,길음뉴타운점,"서울 성북구 길음로 33 (길음동, 길음뉴타운) A동 제2호",서울특별시,성북구,길음동,37.6072048,127.0194894
배스킨라빈스,정릉시장점,서울 성북구 보국문로 43,서울특별시,성북구,정릉동,37.6081881,127.0098725
배스킨라빈스,하월곡점,"서울 성북구 월계로 52 (하월곡동, 에스엠메디칼), 1층",서울특별시,성북구,하월곡동,37.6114752,127.0355786
배스킨라빈스,돌곶이역점,"서울 성북구 돌곶이로 77 (석관동, 석산빌딩)",서울특별시,성북구,석관동,37.6103322,127.0573128
배스킨라빈스,장위래미안점,서울 성북구 장위동 320-2 온유빌딩 102호,서울특별시,성북구,장위동,37.6204358,127.0498942
배스킨라빈스,잠실새내중앙점,"서울 송파구 백제고분로7길 29 (잠실동, 우림빌딩)",서울특별시,송파구,잠실동,37.5109140,127.0821781
배스킨라빈스,신천역점,서울 송파구 올림픽로 130 (잠실동),서울특별시,송파구,잠실동,37.5113788,127.0849952
배스킨라빈스,잠실학원가점,서울 송파구 석촌호수로 114 (잠실동),서울특별시,송파구,잠실동,37.5075350,127.0895505
배스킨라빈스,삼전점,서울 송파구 백제고분로 255,서울특별시,송파구,삼전동,37.5027959,127.0949494
배스킨라빈스,석촌호수점,서울 송파구 석촌동 158-5,서울특별시,송파구,석촌동,37.5074136,127.1024282
배스킨라빈스,잠실홈플러스점,"서울 송파구 올림픽로35가길 16 (신천동, SONGPA FUN STADIUM)",서울특별시,송파구,신천동,37.5162262,127.1030142
배스킨라빈스,잠실나루역점,서울 송파구 올림픽로35길 94,서울특별시,송파구,신천동,37.5184626,127.1034570
배스킨라빈스,송파헬리오시티점,서울 송파구 석촌동 295-9,서울특별시,송파구,석촌동,37.5017271,127.1088813
배스킨라빈스,일신여상점,서울 송파구 송파대로38길 2-5,서울특별시,송파구,송파동,37.5004645,127.1121593
배스킨라빈스,방이시장점,서울 송파구 오금로17길 17 (방이동),서울특별시,송파구,방이동,37.5122881,127.1119405
배스킨라빈스,가락본동점,서울 송파구 중대로 127 한화오벨리스크 지상 1층,서울특별시,송파구,가락동,37.4948535,127.1219157
배스킨라빈스,가든5이마트점,"서울 송파구 충민로 10 (문정동, 가든파이브툴)",서울특별시,송파구,문정동,37.4786598,127.1189685
배스킨라빈스,풍납점,서울 송파구 토성로 55,서울특별시,송파구,풍납동,37.5293627,127.1163955
배스킨라빈스,송파하비오점,"서울 송파구 송파대로 111 (문정동, 파크하비오) 205동",서울특별시,송파구,문정동,37.4805094,127.1232611
배스킨라빈스,방이역점,서울 송파구 마천로 31 (방이동),서울특별시,송파구,방이동,37.5094685,127.1244435
배스킨라빈스,문정역점,"서울 송파구 문정로 19, 1층 103호 (문정동, 프라도빌딩)",서울특별시,송파구,문정동,37.4864530,127.1246601
배스킨라빈스,오금역점,"서울 송파구 오금로 306 (가락동, 가락스타클래스)",서울특별시,송파구,가락동,37.5028857,127.1261205
배스킨라빈스,오금동사거리점,"서울 송파구 동남로 312 (오금동, 더뷰21)",서울특별시,송파구,오금동,37.5031452,127.1385319
배스킨라빈스,거여역점,서울 송파구 오금로 496,서울특별시,송파구,거여동,37.4930781,127.1437614
배스킨라빈스,위례중앙점,"서울 송파구 위례광장로 136 (장지동, 위례아이파크) 제상가4동 1층 D11",서울특별시,송파구,장지동,37.4764950,127.1422214
배스킨라빈스,마천점,서울 송파구 마천동 154-2,서울특별시,송파구,마천동,37.4995877,127.1518938
배스킨라빈스,목동2단지점,서울 양천구 목동서로 63 목동일번가빌딩,서울특별시,양천구,목동,37.5362714,126.8791832
배스킨라빈스,신정2동점,서울 양천구 신정동 117-22,서울특별시,양천구,신정동,37.5215098,126.8741385
배스킨라빈스,목1동점,"서울 양천구 목동서로 250 (목동, 풍성빌딩 1층)",서울특별시,양천구,목동,37.5249716,126.8693605
배스킨라빈스,목동이마트점,서울 양천구 오목로 299 이마트목동 지하2층,서울특별시,양천구,목동,37.5260900,126.8710840
배스킨라빈스,신정갈산점,서울특별시 양천구 신정동 203-7번지 1층,서울특별시,양천구,신정동,37.5087618,126.8647620
배스킨라빈스,목동12단지점,서울 양천구 목동동로 59,서울특별시,양천구,신정동,37.5150376,126.8616218
배스킨라빈스,목동역점,서울 양천구 목동로 210,서울특별시,양천구,목동,37.5273855,126.8644444
배스킨라빈스,신정점,서울 양천구 신월로 348,서울특별시,양천구,신정동,37.5216034,126.8596290
배스킨라빈스,등촌역점,서울 양천구 공항대로 562,서울특별시,양천구,목동,37.5491970,126.8676463
배스킨라빈스,신정네거리점,서울 양천구 중앙로 262,서울특별시,양천구,신정동,37.5198526,126.8534170
배스킨라빈스,신월신곡점,서울 양천구 신월로 173,서울특별시,양천구,신월동,37.5187006,126.8422888
배스킨라빈스,신정이펜하우스점,서울 양천구 신정동 1320-8,서울특별시,양천구,신정동,37.5128967,126.8341443
배스킨라빈스,신월사거리점,서울 양천구 신월동 166-4,서울특별시,양천구,신월동,37.5350453,126.8285286
배스킨라빈스,여의KBS별관점,서울 영등포구 여의도동 44-14 경도빌딩 112호,서울특별시,영등포구,여의도동,37.5193958,126.9314696
배스킨라빈스,영등포신길점,서울 영등포구 신길동 115-14,서울특별시,영등포구,신길동,37.5117347,126.9164995
배스킨라빈스,신길래미안점,"서울 영등포구 가마산로 442 (신길동, 래미안프레비뉴) 1층",서울특별시,영등포구,신길동,37.5048701,126.9077922
배스킨라빈스,신풍역점,"서울 영등포구 신길로 71 (신길동, 광명빌딩)",서울특별시,영등포구,신길동,37.4991081,126.9082135
배스킨라빈스,영등포역남부점,서울 영등포구 영신로9나길 18 (영등포동),서울특별시,영등포구,영등포동,37.5137554,126.9058210
배스킨라빈스,영등포시장역점,"서울 영등포구 국회대로50길 20 (영등포동7가, 포레나 영등포 센트럴) 105호",서울특별시,영등포구,영등포동7가,37.5237284,126.9054672
배스킨라빈스,타임스퀘어점,"서울 영등포구 영중로 15 (영등포동4가, 타임스퀘어)",서울특별시,영등포구,영등포동4가,37.5176343,126.9042788
배스킨라빈스,대림우성점,"서울 영등포구 대림로 157 (대림동, 일승빌딩)",서울특별시,영등포구,대림동,37.4948846,126.8994776
배스킨라빈스,당산래미안점,"서울 영등포구 당산로 214 (당산동5가, 당산 삼성 래미안)111-2, 111-3호",서울특별시,영등포구,당산동5가,37.5322866,126.9031452
배스킨라빈스,영등포홈플러스점,"서울 영등포구 문래동3가 55-3, 홈플러스 2층",서울특별시,영등포구,문래동3가,37.5182268,126.8959472
배스킨라빈스,영등포구청점,서울 영등포구 당산로 104,서울특별시,영등포구,당산동1가,37.5238756,126.8964760
배스킨라빈스,당산역점,서울 영등포구 양평로 67,서울특별시,영등포구,당산동5가,37.5349267,126.8993141
배스킨라빈스,영등포문래점,서울 영등포구 문래동3가 82-8,서울특별시,영등포구,문래동3가,37.5198322,126.8909860
배스킨라빈스,선유도역점,서울시 영등포구 양평동4가 121,서울특별시,영등포구,양평동4가,37.5374294,126.8952647
배스킨라빈스,한남점,서울 용산구 대사관로 66-1 (한남동),서울특별시,용산구,한남동,37.5332125,127.0054381
배스킨라빈스,HIVE한남점,"서울 용산구 독서당로 93 (한남동, 멕시코대사관)",서울특별시,용산구,한남동,37.5350290,127.0106112
배스킨라빈스,동부이촌점,"서울 용산구 이촌동 300-301 삼익상가 108, 109호",서울특별시,용산구,이촌동,37.5184763,126.9760338
배스킨라빈스,용산이마트점,"서울 용산구 한강대로23길 55 (한강로3가, 용산역)",서울특별시,용산구,한강로3가,37.5297718,126.9647415
배스킨라빈스,용산후암점,서울 용산구 후암동 60-38,서울특별시,용산구,후암동,37.5504795,126.9774486
배스킨라빈스,효창센터포레점,서울 용산구 효창동 13-2,서울특별시,용산구,효창동,37.5392799,126.9629920
배스킨라빈스,숙명여대점,서울 용산구 청파로47길 43 (청파동3가),서울특별시,용산구,청파동3가,37.5445771,126.9679686
배스킨라빈스,서울역점,"서울 용산구 청파로 378 (동자동, 공항철도 서울정거장)",서울특별시,용산구,동자동,37.5491188,126.9704827
배스킨라빈스,응암대림점,서울 은평구 응암로 181,서울특별시,은평구,응암동,37.5882168,126.9165357
배스킨라빈스,녹번역점,서울 은평구 은평로 235,서울특별시,은평구,녹번동,37.6011867,126.9339375
배스킨라빈스,응암서부점,서울 은평구 응암동 103-1,서울특별시,은평구,응암동,37.6001355,126.9225958
배스킨라빈스,응암역점,서울 은평구 역촌동 85-48,서울특별시,은평구,역촌동,37.5991005,126.9149939
배스킨라빈스,불광역점,서울 은평구 대조동 14-14,서울특별시,은평구,대조동,37.6100174,126.9299407
배스킨라빈스,불광현대점,서울 은평구 불광로 40 1층 (불광동 281-75),서울특별시,은평구,불광동,37.6111056,126.9303620
배스킨라빈스,구산역점,서울 은평구 연서로 135,서울특별시,은평구,구산동,37.6109005,126.9168541
배스킨라빈스,연신내역점,서울 은평구 통일로 855-7,서울특별시,은평구,갈현동,37.6189229,126.9200433
배스킨라빈스,은평진관점,서울 은평구 진관2로 77,서울특별시,은평구,진관동,37.6346040,126.9277837
배스킨라빈스,은평롯데몰점,서울 은평구 진관동 79-15,서울특별시,은평구,진관동,37.6376280,126.9175921
배스킨라빈스,은평뉴타운점,"서울 은평구 진관4로 17, 820동 110호 (진관동, 은평뉴타운상림마을)",서울특별시,은평구,진관동,37.6440574,126.9227324
배스킨라빈스,동묘역점,서울 종로구 종로 347,서울특별시,종로구,숭인동,37.5737459,127.0164919
배스킨라빈스,종로2가점,"서울 종로구 종로12길 9 (관철동, 영신빌딩)",서울특별시,종로구,관철동,37.5696371,126.9859182
배스킨라빈스,광화문점,"서울 종로구 종로5길 7 (청진동, Tower 8)",서울특별시,종로구,청진동,37.5706324,126.9805518
배스킨라빈스,서울대병원점,"서울 종로구 대학로 101 (연건동, 서울대학교 의과대학)",서울특별시,종로구,연건동,37.5797151,126.9990168
배스킨라빈스,안국역점,서울 종로구 재동 106-4,서울특별시,종로구,재동,37.5770476,126.9858337
배스킨라빈스,대학로점,서울 종로구 혜화동 183,서울특별시,종로구,혜화동,37.5837524,127.0019200
배스킨라빈스,삼청마당점,서울 종로구 화동 137-6,서울특별시,종로구,화동,37.5790203,126.9822661
배스킨라빈스,경복궁역점,서울 종로구 자하문로 9,서울특별시,종로구,체부동,37.5769236,126.9721541
배스킨라빈스,평창점,서울 종로구 평창12길 3 (평창동),서울특별시,종로구,평창동,37.6061821,126.9672314
배스킨라빈스,약수역점,서울 중구 다산로 118,서울특별시,중구,신당동,37.5542472,127.0106425
배스킨라빈스,신당점,서울 중구 퇴계로76길 33 (무학동),서울특별시,중구,무학동,37.5637129,127.0153709
배스킨라빈스,굿모닝시티점,서울 중구 장충단로 247 굿모닝시티 9층,서울특별시,중구,을지로6가,37.5668017,127.0073812
배스킨라빈스,청계천이마트점,서울 중구 청계천로 400,서울특별시,중구,황학동,37.5707646,127.0211246
배스킨라빈스,만리센트럴점,"서울 중구 만리재로 175 (만리동2가, 서울역센트럴자이)",서울특별시,중구,만리동2가,37.5548629,126.9644863
배스킨라빈스,용마산역점,서울 중랑구 면목동 379-39,서울특별시,중랑구,면목동,37.5747838,127.0850380
배스킨라빈스,사가정역점,서울 중랑구 사가정로 395,서울특별시,중랑구,면목동,37.5808378,127.0887031
배스킨라빈스,면목아이파크점,서울 중랑구 동일로 608 (면목동),서울특별시,중랑구,면목동,37.5846467,127.0801325
배스킨라빈스,면목역점,서울 중랑구 겸재로 181,서울특별시,중랑구,면목동,37.5886591,127.0878011
배스킨라빈스,중랑역점,서울 중랑구 중화동 208-33,서울특별시,중랑구,중화동,37.5939986,127.0750395
배스킨라빈스,상봉역점,"서울 중랑구 면목로 495 (상봉동, 이레빌딩)",서울특별시,중랑구,상봉동,37.5960575,127.0853429
배스킨라빈스,중화역점,서울 중랑구 중화동 286-24,서울특별시,중랑구,중화동,37.6017358,127.0800361
배스킨라빈스,,서울 중랑구 망우동 403-70,서울특별시,중랑구,망우동,37.5954030,127.1003270
배스킨라빈스,망우우림점,서울 중랑구 용마산로 498 (망우동),서울특별시,중랑구,망우동,37.5955092,127.1003494
배스킨라빈스,중랑구청점,서울 중랑구 신내동 559-2,서울특별시,중랑구,신내동,37.6056006,127.0951303
배스킨라빈스,먹골역점,서울 중랑구 묵동 175-7,서울특별시,중랑구,묵동,37.6123807,127.0776865
배스킨라빈스,양원역점,서울 중랑구 양원역로10길 3 (망우동),서울특별시,중랑구,망우동,37.6066537,127.1063598
배스킨라빈스,신내홈플러스점,"서울 중랑구 신내로 201 (신내동, 홈플러스 서울 신내점)",서울특별시,중랑구,신내동,37.6158381,127.0937421
배스킨라빈스,세종조치원,세종특별자치시 조치원읍 으뜸길 222          ,세종특별자치시,,조치원읍,36.6015426,127.2969817
배스킨라빈스,조치원죽림점,세종특별자치시 조치원읍 죽림로 7          ,세종특별자치시,,조치원읍,36.5918368,127.2924303
배스킨라빈스,세종해밀점,"세종특별자치시 해밀3로 51 (해밀동) 113,114호(해밀동, 스카이허브)          ",세종특별자치시,,해밀동,36.5290997,127.2650247
배스킨라빈스,세종도담점,"세종특별자치시 도담동 246-5 세종한신휴시티 106,107호",세종특별자치시,,도담동,36.5144306,127.2582688
배스킨라빈스,세종고운점,"세종특별자치시 만남로 140 (고운동, 에이스프라자)",세종특별자치시,,고운동,36.5116614,127.2400955
배스킨라빈스,세종아름점,세종특별자치시 보듬3로 95 해피라움3 107호          ,세종특별자치시,,아름동,36.5113767,127.2489104
배스킨라빈스,세종홈플러스점,세종특별자치시 절재로 154          ,세종특별자치시,,어진동,36.5073644,127.2588023
